~VERSION INFORMATION
VERS.           2.0  :CWLS LOG ASCII STANDARD - 2.0
WRAP.           NO   :One line per depth step
~WELL INFORMATION
STRT.m                          3480.00000: START DEPTH
STOP.m                          3910.00000: STOP DEPTH
STEP.m                             0.50000: STEP
NULL.                           -999.25000: NULL VALUE
COMP.                              Statoil: COMPANY
WELL.                           15/9 F-1 C: WELL
FLD .                                Volve: FIELD
LOC .                                     : LOCATION
PROV.                                     : PROVINCE
UWI .                                     : UNIQUE WELL ID
SRVC.                         Schlumberger: SERVICE COMPANY
DATE.                           05-04-2018: DATE
~CURVE INFORMATION
#MNEM.UNIT                                   Curve Description
#------------                              ----------------------
DEPT.m                                    : curve   1    Depth
C1C2.in                                   : curve   2    Caliper C1C2
QOZI.m3/D                                 : curve   3    Oil rate
QOZT.m3/D                                 : curve   4    Oil rate
QTZT.m3/D                                 : curve   5    Mixture rate
QWZI.m3/D                                 : curve   6    Water rate
QWZT.m3/D                                 : curve   7    Water rate
VASPIN.M/MN                               : curve   8    Apparent velocity
VASPINZ.M/MN                              : curve   9    Apparent velocity
WPRE.bara                                 : curve  10    Pressure
WTEP.°C                                   : curve  11    Temperature
YW_FLV.                                   : curve  12    Water holdup
YW_FLVZ.                                  : curve  13    Water holdup
INFL_Z.                                   : curve  14    Other
~PARAMETER INFORMATION
~OTHER INFORMATION
~ASCII LOG DATA
# ...
  3584.00000    6.14729  -23.60075  -13.04324 -100.47150  159.04701  -87.42826   -4.95699   -4.31872  296.92403  108.86896    0.00326    0.54639    1.00000
  3584.50000    6.15132  -23.60075  -11.70695 -108.14077  159.04701  -96.43382   -4.54144   -4.64307  296.94639  108.86854    0.00289    0.60127    1.00000
  3585.00000    6.15132  -23.60075  -10.37067 -115.81004  159.04701 -105.43938   -1.83675   -4.96742  296.93768  108.86941    0.00294    0.65616    1.00000
  3585.50000    6.14751  -23.60075   -9.03438 -123.47931  159.04701 -114.44493    7.08354   -5.29176  296.94003  108.86809    0.00300    0.71104    1.00000
  3586.00000    6.14826  -23.60075   -7.69809 -131.14858  159.04701 -123.45049    2.56332   -5.61611  296.96004  108.87038    0.00306    0.76592    1.00000
  3586.50000    6.13894  -23.60075   -6.36181 -138.81786  159.04701 -132.45605   -6.75565   -5.94046  296.97813  108.86856    0.00311    0.82081    1.00000
  3587.00000    6.13200  -23.60075   -5.02552 -146.48713  159.04701 -141.46161   -5.98244   -6.26481  296.98783  108.86940    0.00308    0.87569    1.00000
  3587.50000    6.12627  -23.60075   -3.68923 -154.15640  159.04701 -150.46717   -5.08367   -6.58916  296.98602  108.87065    0.00296    0.93058    1.00000
  3588.00000    6.12826  -11.80037   -2.35295 -161.82567   79.52351 -159.47272    5.80215   -6.91351  296.99720  108.87114    0.00283    0.98546    1.00000
  3588.50000    6.12741    0.00000   -2.35294 -161.82560    0.00000 -159.47266    1.25726   -6.91351  297.01070  108.87275    0.00271    0.98546    0.00000
  3589.00000    6.09036    0.00000   -2.35293 -161.82553    0.00000 -159.47260   -9.06807   -6.91350  297.01178  108.87236    0.00259    0.98546    0.00000
  3589.50000    6.14520    0.00000   -2.35293 -161.82546    0.00000 -159.47253  -10.85252   -6.91350  297.02058  108.87102    0.08448    0.98546    0.00000
  3590.00000    6.14935    0.00000   -2.35292 -161.82539    0.00000 -159.47247   -8.54666   -6.91350  297.04804  108.86794    0.26062    0.98546    0.00000
  3590.50000    6.16542    0.00000   -2.35291 -161.82532    0.00000 -159.47241   -1.87271   -6.91349  297.07215  108.86777    0.43677    0.98546    0.00000
  3591.00000    6.14820    0.00000   -2.35291 -161.82525    0.00000 -159.47234  -11.83512   -6.91349  297.06970  108.86678    0.61292    0.98546    0.00000
  3591.50000    6.15046    0.00000   -2.35290 -161.82518    0.00000 -159.47228  -18.78721   -6.91349  297.06480  108.86677    0.78906    0.98546    0.00000
  3592.00000    6.13733    0.00000   -2.35290 -161.82512    0.00000 -159.47222  -17.47160   -6.91348  297.08941  108.86814    0.89818    0.98546    0.00000
  3592.50000    6.13213    0.00000   -2.35289 -161.82505    0.00000 -159.47216  -11.52253   -6.91348  297.13036  108.86842    0.92034    0.98546    0.00000
  3593.00000    6.13514    0.00000   -2.35288 -161.82498    0.00000 -159.47209   -0.50937   -6.91348  297.15453  108.86945    0.94250    0.98546    0.00000
  3593.50000    6.13586    0.00000   -2.35288 -161.82491    0.00000 -159.47203   -5.37893   -6.91347  297.14745  108.86895    0.96466    0.98546    0.00000
  3594.00000    6.13124    0.00000   -2.35287 -161.82484    0.00000 -159.47197  -10.20429   -6.91347  297.14596  108.86978    0.98682    0.98546    0.00000
  3594.50000    6.13262    0.00000   -2.35287 -161.82477    0.00000 -159.47190  -10.19041   -6.91347  297.16639  108.86980    1.00000    0.98546    0.00000
  3595.00000    6.11714    0.00000   -2.35286 -161.82470    0.00000 -159.47184   -6.05270   -6.91347  297.20286  108.86943    1.00000    0.98546    0.00000
  3595.50000    6.11275    0.00000   -2.35285 -161.82463    0.00000 -159.47178   -5.03820   -6.91346  297.21914  108.86959    1.00000    0.98546    0.00000
  3596.00000    6.11360    0.00000   -2.35285 -161.82456    0.00000 -159.47171   -9.33683   -6.91346  297.22262  108.86892    1.00000    0.98546    0.00000
  3596.50000    6.10755    0.00000   -2.35284 -161.82449    0.00000 -159.47165  -10.14930   -6.91346  297.23824  108.87091    1.00000    0.98546    0.00000
  3597.00000    6.10739    0.00000   -2.35283 -161.82442    0.00000 -159.47159   -8.30539   -6.91345  297.24873  108.87041    0.99998    0.98546    0.00000
  3597.50000    6.11357    0.00000   -2.35283 -161.82435    0.00000 -159.47153   -2.59997   -6.91345  297.25891  108.87306    0.99993    0.98546    0.00000
  3598.00000    6.10774    0.00000   -2.35282 -161.82429    0.00000 -159.47146   -7.15064   -6.91345  297.27208  108.87279    0.99988    0.98546    0.00000
  3598.50000    6.12605    0.00000   -2.35282 -161.82422    0.00000 -159.47140  -11.37943   -6.91344  297.31015  108.87306    0.99983    0.98546    0.00000
  3599.00000    6.12964    0.00000   -2.35281 -161.82415    0.00000 -159.47134  -11.55416   -6.91344  297.33845  108.87252    0.99979    0.98546    0.00000
  3599.50000    6.13054    0.00000   -2.35280 -161.82408    0.00000 -159.47127  -10.02398   -6.91344  297.33772  108.87222    0.99977    0.98546    0.00000
  3600.00000    6.12397    0.00000   -2.35280 -161.82401    0.00000 -159.47121   -6.07820   -6.91344  297.32371  108.87453    0.99982    0.98546    0.00000
  3600.50000    6.14345   -2.35285   -2.26381 -163.52554   47.34289 -161.26173   -5.92458   -6.98457  297.34016  108.87181    0.99987    0.98601    1.00000
  3601.00000    6.12527   -2.35285   -2.13064 -166.07182   47.34289 -163.94118   -6.35091   -7.09101  297.38721  108.87425    0.99992    0.98683    1.00000
  3601.50000    6.13801   -2.35285   -1.99748 -168.61811   47.34289 -166.62063   -5.27153   -7.19746  297.41510  108.87412    0.99997    0.98766    1.00000
  3602.00000    6.15237   -2.35285   -1.86431 -171.16439   47.34289 -169.30008   -6.56993   -7.30390  297.40646  108.87470    1.00000    0.98848    1.00000
  3602.50000    6.16674   -2.35285   -1.73115 -173.71068   47.34289 -171.97953   -8.15305   -7.41035  297.40987  108.87312    1.00000    0.98930    1.00000
  3603.00000    6.15523   -2.35285   -1.59798 -176.25696   47.34289 -174.65898   -7.51382   -7.51679  297.42889  108.87370    1.00000    0.99013    1.00000
  3603.50000    6.16670   -2.35285   -1.46482 -178.80324   47.34289 -177.33843   -7.25199   -7.62324  297.45126  108.87372    1.00000    0.99095    1.00000
  3604.00000    6.15857   -2.35285   -1.33165 -181.34953   47.34289 -180.01788   -7.24271   -7.72968  297.46293  108.87638    1.00000    0.99177    1.00000
  3604.50000    6.14219   -2.35285   -1.19849 -183.89581   47.34289 -182.69733   -9.36362   -7.83613  297.49203  108.87755    0.99990    0.99259    1.00000
  3605.00000    6.14512   -2.35285   -1.06532 -186.44210   47.34289 -185.37677  -10.54260   -7.94257  297.52023  108.87647    0.99955    0.99342    1.00000
  3605.50000    6.14502   -2.35285   -0.93216 -188.98838   47.34289 -188.05622   -7.51975   -8.04902  297.51405  108.87555    0.99920    0.99424    1.00000
  3606.00000    6.15972   -2.35285   -0.79899 -191.53466   47.34289 -190.73567   -5.80118   -8.15546  297.50376  108.87575    0.99885    0.99506    1.00000
  3606.50000    6.14386   -2.35285   -0.66583 -194.08095   47.34289 -193.41512   -9.33753   -8.26191  297.52921  108.87630    0.99850    0.99589    1.00000
  3607.00000    6.13855   -2.35285   -0.53266 -196.62723   47.34289 -196.09457  -11.06078   -8.36835  297.57748  108.87680    0.99832    0.99671    1.00000
  3607.50000    6.15132   -2.35285   -0.39950 -199.17352   47.34289 -198.77402  -10.42345   -8.47480  297.60756  108.87717    0.99868    0.99753    1.00000
  3608.00000    6.15478   -2.35285   -0.26633 -201.71980   47.34289 -201.45347   -5.39977   -8.58124  297.59655  108.87705    0.99903    0.99835    1.00000
  3608.50000    6.15843   -2.35285   -0.13317 -204.26608   47.34289 -204.13292   -3.68498   -8.68769  297.59401  108.87810    0.99938    0.99918    1.00000
  3609.00000    6.15132   -1.17642    0.00000 -206.81237   23.67145 -206.81237   -5.02686   -8.79413  297.61732  108.87768    0.99973    1.00000    1.00000
  3609.50000    6.14777    0.00000    0.00000 -206.81229    0.00000 -206.81229   -5.26791   -8.79413  297.65163  108.87759    1.00000    1.00000    0.00000
