~VERSION INFORMATION
VERS.           2.0  :CWLS LOG ASCII STANDARD - 2.0
WRAP.           NO   :One line per depth step
~WELL INFORMATION
STRT.m                          3480.00000: START DEPTH
STOP.m                          3910.00000: STOP DEPTH
STEP.m                             0.50000: STEP
NULL.                           -999.25000: NULL VALUE
COMP.                              Statoil: COMPANY
WELL.                           15/9 F-1 C: WELL
FLD .                                Volve: FIELD
LOC .                                     : LOCATION
PROV.                                     : PROVINCE
UWI .                                     : UNIQUE WELL ID
SRVC.                         Schlumberger: SERVICE COMPANY
DATE.                           05-04-2018: DATE
~CURVE INFORMATION
#MNEM.UNIT                                   Curve Description
#------------                              ----------------------
DEPT.m                                    : curve   1    Depth
C1C2.in                                   : curve   2    Caliper C1C2
QOZI.m3/D                                 : curve   3    Oil rate
QOZT.m3/D                                 : curve   4    Oil rate
QTZT.m3/D                                 : curve   5    Mixture rate
QWZI.m3/D                                 : curve   6    Water rate
QWZT.m3/D                                 : curve   7    Water rate
VASPIN.M/MN                               : curve   8    Apparent velocity
VASPINZ.M/MN                              : curve   9    Apparent velocity
WPRE.bara                                 : curve  10    Pressure
WTEP.°C                                   : curve  11    Temperature
YW_FLV.                                   : curve  12    Water holdup
YW_FLVZ.                                  : curve  13    Water holdup
INFL_Z.                                   : curve  14    Other
~PARAMETER INFORMATION
~OTHER INFORMATION
~ASCII LOG DATA
# ...
  3532.00000    6.12691 -999.25000   -7.28622   -7.28622 -999.25000    0.00000   -0.24335   -0.43723  296.07658  108.48740    0.00000    0.00000    0.00000
  3532.50000    6.11941 -999.25000   -7.28626   -7.28626 -999.25000    0.00000   -4.28801   -0.43722  296.08331  108.50252    0.00000    0.00000    0.00000
  3533.00000    6.11941 -999.25000   -7.28630   -7.28630 -999.25000    0.00000   -3.53780   -0.43721  296.06652  108.52246    0.00000    0.00000    0.00000
  3533.50000    6.11941 -999.25000   -7.28634   -7.28634 -999.25000    0.00000    0.15628   -0.43720  296.05466  108.53860    0.00000    0.00000    0.00000
  3534.00000    6.11964 -999.25000   -7.28638   -7.28638 -999.25000    0.00000    4.40974   -0.43719  296.07865  108.54707    0.00000    0.00000    0.00000
  3534.50000    6.11941 -999.25000   -7.28642   -7.28642 -999.25000    0.00000   -3.19970   -0.43718  296.10720  108.55842    0.00000    0.00000    0.00000
  3535.00000    6.11941 -999.25000   -7.28646   -7.28646 -999.25000    0.00000   -4.80317   -0.43717  296.13151  108.57569    0.00000    0.00000    0.00000
  3535.50000    6.13200 -999.25000   -7.28650   -7.28650 -999.25000    0.00000   -3.79476   -0.43716  296.11714  108.59149    0.00000    0.00000    0.00000
  3536.00000    6.13586 -999.25000   -7.28654   -7.28654 -999.25000    0.00000    2.71003   -0.43715  296.09766  108.60416    0.00000    0.00000    0.00000
  3536.50000    6.13381 -999.25000   -7.28658   -7.28658 -999.25000    0.00000    4.08845   -0.43714  296.11211  108.61289    0.00000    0.00000    0.00000
  3537.00000    6.12604 -999.25000   -7.28662   -7.28662 -999.25000    0.00000   -2.74763   -0.43713  296.13198  108.62607    0.00000    0.00000    0.00000
  3537.50000    6.11650 -999.25000   -7.28666   -7.28666 -999.25000    0.00000   -2.49877   -0.43711  296.15394  108.64277    0.00000    0.00000    0.00000
  3538.00000    6.10394 -999.25000   -7.28670   -7.28670 -999.25000    0.00000   -0.95656   -0.43710  296.16207  108.65681    0.00000    0.00000    0.00000
  3538.50000    6.11171 -999.25000   -7.28674   -7.28674 -999.25000    0.00000    5.94837   -0.43709  296.16281  108.66725    0.00000    0.00000    0.00000
  3539.00000    6.11941 -999.25000   -7.28678   -7.28678 -999.25000    0.00000    0.81721   -0.43708  296.15612  108.67836    0.00000    0.00000    0.00000
  3539.50000    6.11890 -999.25000   -7.28682   -7.28682 -999.25000    0.00000   -4.93822   -0.43707  296.16269  108.69197    0.00000    0.00000    0.00000
  3540.00000    6.10813 -999.25000   -7.28686   -7.28686 -999.25000    0.00000   -4.33375   -0.43706  296.17157  108.70592    0.00000    0.00000    0.00000
  3540.50000    6.10274 -999.25000   -7.28690   -7.28690 -999.25000    0.00000   -1.37743   -0.43705  296.18597  108.71740    0.00000    0.00000    0.00000
  3541.00000    6.08749 -999.25000   -7.28694   -7.28694 -999.25000    0.00000    4.88796   -0.43704  296.20588  108.72403    0.00000    0.00000    0.00000
  3541.50000    6.09000 -999.25000   -7.28698   -7.28698 -999.25000    0.00000    0.87762   -0.43703  296.21504  108.73510    0.00000    0.00000    0.00000
  3542.00000    6.08749 -999.25000   -7.28702   -7.28702 -999.25000    0.00000   -0.72088   -0.43702  296.20426  108.74805    0.00000    0.00000    0.00000
  3542.50000    6.08749 -999.25000   -7.28706   -7.28706 -999.25000    0.00000    0.18639   -0.43701  296.19897  108.75857    0.00000    0.00000    0.00000
  3543.00000    6.08769 -999.25000   -7.28710   -7.28710 -999.25000    0.00000    4.43367   -0.43700  296.20761  108.76652    0.00000    0.00000    0.00000
  3543.50000    6.08749 -999.25000   -7.28714   -7.28714 -999.25000    0.00000    1.67196   -0.43699  296.23019  108.76511    0.00000    0.00000    0.00000
  3544.00000    6.08749 -999.25000   -7.28718   -7.28718 -999.25000    0.00000   -4.42760   -0.43698  296.25732  108.76199    0.00024    0.00000    0.00000
  3544.50000    6.09020 -999.25000   -7.28722   -7.28722 -999.25000    0.00000   -4.12860   -0.43697  296.26737  108.75583    0.00383    0.00000    0.00000
  3545.00000    6.10571 -999.25000   -7.28726   -7.28726 -999.25000    0.00000   -1.94589   -0.43696  296.25086  108.74638    0.00764    0.00000    0.00000
  3545.50000    6.10527   18.66556   -8.29491   -8.31792    0.42612   -0.02300    5.58137   -0.47735  296.24163  108.74336    0.01145    0.00087    1.00000
  3546.00000    6.10463   18.66556   -9.33372   -9.38044    0.42612   -0.04672    0.16098   -0.51899  296.24846  108.75236    0.01526    0.00177    1.00000
  3546.50000    6.11559   18.66556  -10.37253  -10.44297    0.42612   -0.07044   -2.91578   -0.56063  296.28059  108.76403    0.01859    0.00267    1.00000
  3547.00000    6.12792   18.66556  -11.41134  -11.50550    0.42612   -0.09415   -2.25632   -0.60227  296.31094  108.77831    0.01548    0.00357    1.00000
  3547.50000    6.14751   18.66556  -12.45015  -12.56802    0.42612   -0.11787    0.76337   -0.64391  296.30286  108.78670    0.01170    0.00447    1.00000
  3548.00000    6.13510   18.66556  -13.48896  -13.63055    0.42612   -0.14158    3.85160   -0.68555  296.28986  108.78597    0.00792    0.00537    1.00000
  3548.50000    6.13296   18.66556  -14.52777  -14.69307    0.42612   -0.16530   -1.75197   -0.72719  296.28985  108.78452    0.00414    0.00627    1.00000
  3549.00000    6.14472   18.66556  -15.56658  -15.75560    0.42612   -0.18902   -1.82992   -0.76883  296.31028  108.77978    0.00047    0.00716    1.00000
  3549.50000    6.16576   18.66556  -16.60539  -16.81813    0.42612   -0.21273   -0.08703   -0.81047  296.34035  108.77259    0.00287    0.00806    1.00000
  3550.00000    6.15179   18.66556  -17.64420  -17.88065    0.42612   -0.23645    4.05108   -0.85211  296.34208  108.76273    0.00576    0.00896    1.00000
  3550.50000    6.15295   18.66556  -18.68301  -18.94318    0.42612   -0.26016   -0.78107   -0.89375  296.35006  108.76187    0.00865    0.00986    1.00000
  3551.00000    6.14082   18.66556  -19.72182  -20.00570    0.42612   -0.28388   -4.25395   -0.93539  296.34575  108.76562    0.01155    0.01076    1.00000
  3551.50000    6.14632   18.66556  -20.76064  -21.06823    0.42612   -0.30759   -3.09572   -0.97703  296.34784  108.77178    0.01444    0.01166    1.00000
  3552.00000    6.15720   18.66556  -21.79945  -22.13076    0.42612   -0.33131    2.13737   -1.01867  296.35773  108.77961    0.01430    0.01256    1.00000
  3552.50000    6.16182   18.66556  -22.83826  -23.19328    0.42612   -0.35503    8.45822   -1.06031  296.36665  108.78603    0.01389    0.01346    1.00000
  3553.00000    6.15650   18.66556  -23.87707  -24.25581    0.42612   -0.37874   -0.37969   -1.10194  296.39066  108.79791    0.01348    0.01436    1.00000
  3553.50000    6.16630   18.66556  -24.91588  -25.31833    0.42612   -0.40246   -4.13524   -1.14358  296.40605  108.81475    0.01307    0.01526    1.00000
  3554.00000    6.16674    9.33278  -25.95469  -26.38086    0.21306   -0.42617   -5.04819   -1.18522  296.40284  108.83125    0.01262    0.01615    1.00000
  3554.50000    6.16674    0.00000  -25.95468  -26.38085    0.00000   -0.42617    0.49017   -1.18522  296.39646  108.84349    0.01101    0.01615    0.00000
  3555.00000    6.16347    0.00000  -25.95467  -26.38085    0.00000   -0.42617    3.04573   -1.18522  296.39419  108.84886    0.00920    0.01615    0.00000
  3555.50000    6.13818    0.00000  -25.95467  -26.38084    0.00000   -0.42617   -7.89895   -1.18522  296.41599  108.84811    0.00740    0.01615    0.00000
  3556.00000    6.12969    0.00000  -25.95466  -26.38084    0.00000   -0.42618  -10.53216   -1.18522  296.44264  108.84656    0.00559    0.01615    0.00000
  3556.50000    6.12653    0.00000  -25.95466  -26.38083    0.00000   -0.42618   -9.38755   -1.18522  296.46671  108.84980    0.00380    0.01615    0.00000
  3557.00000    6.13437    0.00000  -25.95465  -26.38083    0.00000   -0.42618   -0.90062   -1.18522  296.45024  108.85432    0.00312    0.01615    0.00000
  3557.50000    6.13483    0.00000  -25.95465  -26.38082    0.00000   -0.42618    4.49480   -1.18523  296.44028  108.85869    0.00265    0.01615    0.00000
