~VERSION INFORMATION
VERS.           2.0  :CWLS LOG ASCII STANDARD - 2.0
WRAP.           NO   :One line per depth step
~WELL INFORMATION
STRT.m                          3480.00000: START DEPTH
STOP.m                          3910.00000: STOP DEPTH
STEP.m                             0.50000: STEP
NULL.                           -999.25000: NULL VALUE
COMP.                              Statoil: COMPANY
WELL.                           15/9 F-1 C: WELL
FLD .                                Volve: FIELD
LOC .                                     : LOCATION
PROV.                                     : PROVINCE
UWI .                                     : UNIQUE WELL ID
SRVC.                         Schlumberger: SERVICE COMPANY
DATE.                           05-04-2018: DATE
~CURVE INFORMATION
#MNEM.UNIT                                   Curve Description
#------------                              ----------------------
DEPT.m                                    : curve   1    Depth
C1C2.in                                   : curve   2    Caliper C1C2
QOZI.m3/D                                 : curve   3    Oil rate
QOZT.m3/D                                 : curve   4    Oil rate
QTZT.m3/D                                 : curve   5    Mixture rate
QWZI.m3/D                                 : curve   6    Water rate
QWZT.m3/D                                 : curve   7    Water rate
VASPIN.M/MN                               : curve   8    Apparent velocity
VASPINZ.M/MN                              : curve   9    Apparent velocity
WPRE.bara                                 : curve  10    Pressure
WTEP.°C                                   : curve  11    Temperature
YW_FLV.                                   : curve  12    Water holdup
YW_FLVZ.                                  : curve  13    Water holdup
INFL_Z.                                   : curve  14    Other
~PARAMETER INFORMATION
~OTHER INFORMATION
~ASCII LOG DATA
# ...
  3896.00000    6.16931 -999.25000  -18.08497  -78.49612 -999.25000  -60.41114   -2.56755   -3.40504  307.81850  109.45111    0.77739    0.76961    0.00000
  3896.50000    6.16931 -999.25000  -18.08497  -78.49628 -999.25000  -60.41131   -1.39493   -3.40504  307.83359  109.45366    0.77659    0.76961    0.00000
  3897.00000    6.18521 -999.25000  -18.08497  -78.49644 -999.25000  -60.41147   -3.38812   -3.40505  307.85107  109.45753    0.77375    0.76961    0.00000
  3897.50000    6.16546 -999.25000  -18.08497  -78.49661 -999.25000  -60.41164   -4.51416   -3.40505  307.86447  109.46036    0.77090    0.76961    0.00000
  3898.00000    6.15504 -999.25000  -18.08496  -78.49677 -999.25000  -60.41180   -3.08174   -3.40505  307.89085  109.46241    0.76806    0.76961    0.00000
  3898.50000    6.15238 -999.25000  -18.08496  -78.49693 -999.25000  -60.41197    0.48824   -3.40506  307.91347  109.46416    0.76523    0.76961    0.00000
  3899.00000    6.15293 -999.25000  -18.08496  -78.49710 -999.25000  -60.41214   -1.56834   -3.40506  307.92452  109.46867    0.76592    0.76961    0.00000
  3899.50000    6.17627 -999.25000  -18.08496  -78.49726 -999.25000  -60.41230   -5.28017   -3.40507  307.93720  109.47471    0.76763    0.76961    0.00000
  3900.00000    6.18989 -999.25000  -18.08496  -78.49742 -999.25000  -60.41247   -5.71710   -3.40507  307.95223  109.48254    0.76935    0.76961    0.00000
  3900.50000    6.18942 -999.25000  -18.08495  -78.49759 -999.25000  -60.41263   -3.72824   -3.40508  307.97403  109.48578    0.77106    0.76961    0.00000
  3901.00000    6.18516 -999.25000  -18.08495  -78.49775 -999.25000  -60.41280   -3.01478   -3.40508  307.99540  109.49227    0.77278    0.76961    0.00000
  3901.50000    6.17224 -999.25000  -18.08495  -78.49791 -999.25000  -60.41296   -5.21983   -3.40509  308.01222  109.49741    0.77329    0.76961    0.00000
  3902.00000    6.16906 -999.25000  -18.08495  -78.49808 -999.25000  -60.41313   -4.53371   -3.40509  308.03756  109.50360    0.77339    0.76961    0.00000
  3902.50000    6.18340 -999.25000  -18.08494  -78.49824 -999.25000  -60.41330   -2.60173   -3.40510  308.06798  109.50683    0.77350    0.76961    0.00000
  3903.00000    6.18555 -999.25000  -18.08494  -78.49840 -999.25000  -60.41346   -0.14137   -3.40510  308.09174  109.51050    0.77361    0.76961    0.00000
  3903.50000    6.19472 -999.25000  -18.08494  -78.49857 -999.25000  -60.41363   -2.07349   -3.40511  308.10602  109.51458    0.77372    0.76961    0.00000
  3904.00000    6.20030 -999.25000  -18.08494  -78.49873 -999.25000  -60.41379   -7.05897   -3.40511  308.12026  109.51654    0.76974    0.76961    0.00000
  3904.50000    6.19942 -999.25000  -18.08493  -78.49889 -999.25000  -60.41396   -7.88200   -3.40511  308.13893  109.52103    0.76417    0.76962    0.00000
  3905.00000    6.19873 -999.25000  -18.08493  -78.49906 -999.25000  -60.41412   -2.79293   -3.40512  308.15612  109.52307    0.75860    0.76962    0.00000
  3905.50000    6.19993 -999.25000  -18.08493  -78.49922 -999.25000  -60.41429   -0.13029   -3.40512  308.16361  109.52664    0.75303    0.76962    0.00000
  3906.00000    6.20122 -999.25000  -18.08493  -78.49938 -999.25000  -60.41446   -1.31960   -3.40513  308.18255  109.53294    0.74746    0.76962    0.00000
  3906.50000    6.23537 -999.25000  -18.08493  -78.49955 -999.25000  -60.41462   -3.42033   -3.40513  308.20223  109.53819    0.76802    0.76962    0.00000
  3907.00000    6.21062 -999.25000  -18.08492  -78.49971 -999.25000  -60.41479   -6.05622   -3.40514  308.21739  109.54569    0.80035    0.76962    0.00000
  3907.50000    6.21875 -999.25000  -18.08492  -78.49987 -999.25000  -60.41495   -5.64533   -3.40514  308.23828  109.55499    0.83268    0.76962    0.00000
  3908.00000    6.22344 -999.25000  -18.08492  -78.50004 -999.25000  -60.41512   -2.93287   -3.40515  308.25096  109.56102    0.86501    0.76962    0.00000
  3908.50000    6.22210 -999.25000  -18.08492  -78.50020 -999.25000  -60.41528   -3.74194   -3.40515  308.27235  109.57165    0.89734    0.76962    0.00000
  3909.00000    6.22024 -999.25000  -18.08491  -78.50036 -999.25000  -60.41545   -4.25660   -3.40516  308.28835  109.57749    0.90782    0.76962    0.00000
  3909.50000    6.21894 -999.25000  -18.08491  -78.50053 -999.25000  -60.41562   -2.54951   -3.40516  308.29549  109.58453    0.90702    0.76962    0.00000
  3910.00000    6.21647 -999.25000  -18.08491  -78.50069 -999.25000  -60.41578   -7.12191   -3.40517  308.32416  109.58914    0.90622    0.76962    0.00000
