~VERSION INFORMATION
VERS.           2.0  :CWLS LOG ASCII STANDARD - 2.0
WRAP.           NO   :One line per depth step
~WELL INFORMATION
STRT.m                          3480.00000: START DEPTH
STOP.m                          3910.00000: STOP DEPTH
STEP.m                             0.50000: STEP
NULL.                           -999.25000: NULL VALUE
COMP.                              Statoil: COMPANY
WELL.                           15/9 F-1 C: WELL
FLD .                                Volve: FIELD
LOC .                                     : LOCATION
PROV.                                     : PROVINCE
UWI .                                     : UNIQUE WELL ID
SRVC.                         Schlumberger: SERVICE COMPANY
DATE.                           05-04-2018: DATE
~CURVE INFORMATION
#MNEM.UNIT                                   Curve Description
#------------                              ----------------------
DEPT.m                                    : curve   1    Depth
C1C2.in                                   : curve   2    Caliper C1C2
QOZI.m3/D                                 : curve   3    Oil rate
QOZT.m3/D                                 : curve   4    Oil rate
QTZT.m3/D                                 : curve   5    Mixture rate
QWZI.m3/D                                 : curve   6    Water rate
QWZT.m3/D                                 : curve   7    Water rate
VASPIN.M/MN                               : curve   8    Apparent velocity
VASPINZ.M/MN                              : curve   9    Apparent velocity
WPRE.bara                                 : curve  10    Pressure
WTEP.°C                                   : curve  11    Temperature
YW_FLV.                                   : curve  12    Water holdup
YW_FLVZ.                                  : curve  13    Water holdup
INFL_Z.                                   : curve  14    Other
~PARAMETER INFORMATION
~OTHER INFORMATION
~ASCII LOG DATA
# ...
  3662.00000    6.16277    0.00000    0.00000 -190.24613    0.00000 -190.24613   -8.08552   -8.10227  299.57479  108.91344    1.00000    1.00000    0.00000
  3662.50000    6.14684    0.00000    0.00000 -190.24606    0.00000 -190.24606   -8.52668   -8.10226  299.59104  108.91422    1.00000    1.00000    0.00000
  3663.00000    6.13672    0.00000    0.00000 -190.24600    0.00000 -190.24600   -7.65222   -8.10226  299.60977  108.91462    1.00000    1.00000    0.00000
  3663.50000    6.14467    0.00000    0.00000 -190.24594    0.00000 -190.24594   -7.77039   -8.10226  299.62715  108.91629    1.00000    1.00000    0.00000
  3664.00000    6.14965    0.00000    0.00000 -190.24588    0.00000 -190.24588   -8.29656   -8.10225  299.64532  108.91696    1.00000    1.00000    0.00000
  3664.50000    6.14709    0.00000    0.00000 -190.24581    0.00000 -190.24581   -9.28461   -8.10225  299.67541  108.91634    1.00000    1.00000    0.00000
  3665.00000    6.15333    0.00000    0.00000 -190.24575    0.00000 -190.24575   -9.39759   -8.10225  299.69365  108.91555    0.99961    1.00000    0.00000
  3665.50000    6.13827    0.00000    0.00000 -190.24569    0.00000 -190.24569   -7.62503   -8.10224  299.71168  108.91623    0.99892    1.00000    0.00000
  3666.00000    6.14805    0.00000    0.00000 -190.24561    0.00000 -190.24561   -7.95435   -8.10224  299.73590  108.91796    0.99822    1.00000    0.00000
  3666.50000    6.15304    0.00000    0.00000 -190.24553    0.00000 -190.24553  -10.13534   -8.10224  299.75352  108.91764    0.99753    1.00000    0.00000
  3667.00000    6.15304    0.00000    0.00000 -190.24544    0.00000 -190.24544  -10.69444   -8.10223  299.78498  108.91740    0.99684    1.00000    0.00000
  3667.50000    6.14351    0.00000    0.00000 -190.24535    0.00000 -190.24535   -9.06491   -8.10223  299.80025  108.91927    0.99689    1.00000    0.00000
  3668.00000    6.13672    0.00000    0.00000 -190.24527    0.00000 -190.24527   -6.04505   -8.10222  299.81054  108.91912    0.99758    1.00000    0.00000
  3668.50000    6.14681    0.00000    0.00000 -190.24518    0.00000 -190.24518   -4.52664   -8.10222  299.83755  108.91979    0.99827    1.00000    0.00000
  3669.00000    6.13801    0.00000    0.00000 -190.24510    0.00000 -190.24510   -7.11246   -8.10221  299.85396  108.91943    0.99897    1.00000    0.00000
  3669.50000    6.15563    0.00000    0.00000 -190.24501    0.00000 -190.24501   -8.95540   -8.10221  299.88374  108.92050    0.99966    1.00000    0.00000
  3670.00000    6.16248    0.00000    0.00000 -190.24492    0.00000 -190.24492   -8.62496   -8.10221  299.90469  108.92177    1.00000    1.00000    0.00000
  3670.50000    6.16227    0.00000    0.00000 -190.24484    0.00000 -190.24484   -7.64876   -8.10220  299.90877  108.92176    1.00000    1.00000    0.00000
  3671.00000    6.14095    0.00000    0.00000 -190.24475    0.00000 -190.24475   -5.64984   -8.10220  299.93973  108.91890    1.00000    1.00000    0.00000
  3671.50000    6.12679    0.00000    0.00000 -190.24466    0.00000 -190.24466   -6.05375   -8.10219  299.95268  108.92201    1.00000    1.00000    0.00000
  3672.00000    6.11629    0.00000    0.00000 -190.24458    0.00000 -190.24458   -7.22506   -8.10219  299.96827  108.92258    1.00000    1.00000    0.00000
  3672.50000    6.13294    0.00000    0.00000 -190.24449    0.00000 -190.24449   -6.54750   -8.10218  299.99607  108.92318    0.99945    1.00000    0.00000
  3673.00000    6.14868    0.00000    0.00000 -190.24440    0.00000 -190.24440   -6.99784   -8.10218  300.02069  108.92404    0.99830    1.00000    0.00000
  3673.50000    6.13891    0.00000    0.00000 -190.24432    0.00000 -190.24432   -8.09205   -8.10217  300.04785  108.92382    0.99716    1.00000    0.00000
  3674.00000    6.14161    0.00000    0.00000 -190.24426    0.00000 -190.24426   -7.35086   -8.10217  300.04715  108.92481    0.99601    1.00000    0.00000
  3674.50000    6.13379    0.00000    0.00000 -190.24421    0.00000 -190.24421   -7.22162   -8.10217  300.06226  108.92469    0.99486    1.00000    0.00000
  3675.00000    6.13672    0.00000    0.00000 -190.24415    0.00000 -190.24415   -8.78846   -8.10216  300.09817  108.92544    0.99333    1.00000    0.00000
  3675.50000    6.13493    0.00000    0.00000 -190.24410    0.00000 -190.24410   -8.80542   -8.10216  300.12993  108.92834    0.99133    1.00000    0.00000
  3676.00000    6.13431    0.00000    0.00000 -190.24405    0.00000 -190.24405   -9.39489   -8.10216  300.15066  108.92907    0.98934    1.00000    0.00000
  3676.50000    6.13672    0.00000    0.00000 -190.24399    0.00000 -190.24399   -9.92516   -8.10215  300.15444  108.93031    0.98734    1.00000    0.00000
  3677.00000    6.13672    0.00000    0.00000 -190.24394    0.00000 -190.24394   -8.00434   -8.10215  300.17486  108.93041    0.98534    1.00000    0.00000
  3677.50000    6.13852    0.00000    0.00000 -190.24389    0.00000 -190.24389   -6.52580   -8.10215  300.20381  108.93160    0.98548    1.00000    0.00000
  3678.00000    6.14753    0.00000    0.00000 -190.24383    0.00000 -190.24383   -8.26885   -8.10215  300.21837  108.93092    0.98863    1.00000    0.00000
  3678.50000    6.15466    0.00000    0.00000 -190.24378    0.00000 -190.24378  -11.19981   -8.10214  300.25083  108.93070    0.99178    1.00000    0.00000
  3679.00000    6.14784    0.00000    0.00000 -190.24373    0.00000 -190.24373  -10.87344   -8.10214  300.27621  108.93174    0.99492    1.00000    0.00000
  3679.50000    6.15133    0.00000    0.00000 -190.24367    0.00000 -190.24367   -7.74939   -8.10214  300.28890  108.93153    0.99807    1.00000    0.00000
  3680.00000    6.15871    0.00000    0.00000 -190.24362    0.00000 -190.24362   -3.43180   -8.10213  300.30276  108.93221    1.00000    1.00000    0.00000
  3680.50000    6.16561    0.00000    0.00000 -190.24356    0.00000 -190.24356   -4.61954   -8.10213  300.31927  108.93084    1.00000    1.00000    0.00000
  3681.00000    6.16033    0.00000    0.00000 -190.24351    0.00000 -190.24351   -8.48278   -8.10213  300.35897  108.93374    1.00000    1.00000    0.00000
  3681.50000    6.16534    0.00000    0.00000 -190.24346    0.00000 -190.24346   -9.86298   -8.10212  300.37692  108.93542    1.00000    1.00000    0.00000
  3682.00000    6.16569    0.00000    0.00000 -190.24341    0.00000 -190.24341  -10.36560   -8.10212  300.37834  108.93652    1.00000    1.00000    0.00000
  3682.50000    6.15756    0.00000    0.00000 -190.24336    0.00000 -190.24336   -6.79089   -8.10212  300.39731  108.93663    0.99998    1.00000    0.00000
  3683.00000    6.10560    0.00000    0.00000 -190.24332    0.00000 -190.24332   -5.77427   -8.10211  300.42387  108.93571    0.99994    1.00000    0.00000
  3683.50000    6.12658    0.00000    0.00000 -190.24327    0.00000 -190.24327   -6.73665   -8.10211  300.44962  108.93713    0.99989    1.00000    0.00000
  3684.00000    6.13672    0.00000    0.00000 -190.24322    0.00000 -190.24322   -5.26162   -8.10211  300.45977  108.93809    0.99984    1.00000    0.00000
  3684.50000    6.13672    0.00000    0.00000 -190.24318    0.00000 -190.24318   -6.50337   -8.10210  300.47535  108.93860    0.99980    1.00000    0.00000
  3685.00000    6.13672    0.00000    0.00000 -190.24313    0.00000 -190.24313   -7.78829   -8.10210  300.50696  108.93990    0.99978    1.00000    0.00000
  3685.50000    6.13672    0.00000    0.00000 -190.24308    0.00000 -190.24308   -6.83486   -8.10210  300.52581  108.93951    0.99983    1.00000    0.00000
  3686.00000    6.13672    0.00000    0.00000 -190.24303    0.00000 -190.24303   -6.72506   -8.10210  300.53904  108.94102    0.99987    1.00000    0.00000
  3686.50000    6.13672    0.00000    0.00000 -190.24299    0.00000 -190.24299   -8.49102   -8.10209  300.56574  108.94127    0.99992    1.00000    0.00000
  3687.00000    6.13672    0.00000    0.00000 -190.24294    0.00000 -190.24294   -9.92126   -8.10209  300.59883  108.94129    0.99997    1.00000    0.00000
  3687.50000    6.13672    0.00000    0.00000 -190.24289    0.00000 -190.24289  -11.31324   -8.10209  300.63034  108.94274    0.99954    1.00000    0.00000
