~VERSION INFORMATION
VERS.           2.0  :CWLS LOG ASCII STANDARD - 2.0
WRAP.           NO   :One line per depth step
~WELL INFORMATION
STRT.m                          3480.00000: START DEPTH
STOP.m                          3910.00000: STOP DEPTH
STEP.m                             0.50000: STEP
NULL.                           -999.25000: NULL VALUE
COMP.                              Statoil: COMPANY
WELL.                           15/9 F-1 C: WELL
FLD .                                Volve: FIELD
LOC .                                     : LOCATION
PROV.                                     : PROVINCE
UWI .                                     : UNIQUE WELL ID
SRVC.                         Schlumberger: SERVICE COMPANY
DATE.                           05-04-2018: DATE
~CURVE INFORMATION
#MNEM.UNIT                                   Curve Description
#------------                              ----------------------
DEPT.m                                    : curve   1    Depth
C1C2.in                                   : curve   2    Caliper C1C2
QOZI.m3/D                                 : curve   3    Oil rate
QOZT.m3/D                                 : curve   4    Oil rate
QTZT.m3/D                                 : curve   5    Mixture rate
QWZI.m3/D                                 : curve   6    Water rate
QWZT.m3/D                                 : curve   7    Water rate
VASPIN.M/MN                               : curve   8    Apparent velocity
VASPINZ.M/MN                              : curve   9    Apparent velocity
WPRE.bara                                 : curve  10    Pressure
WTEP.°C                                   : curve  11    Temperature
YW_FLV.                                   : curve  12    Water holdup
YW_FLVZ.                                  : curve  13    Water holdup
INFL_Z.                                   : curve  14    Other
~PARAMETER INFORMATION
~OTHER INFORMATION
~ASCII LOG DATA
# ...
  3688.00000    6.14114    0.00000    0.00000 -190.24284    0.00000 -190.24284   -9.95704   -8.10208  300.62636  108.94284    0.99800    1.00000    0.00000
  3688.50000    6.13672    0.00000    0.00000 -190.24280    0.00000 -190.24280   -6.75825   -8.10208  300.64252  108.94424    0.99645    1.00000    0.00000
  3689.00000    6.13672    0.00000    0.00000 -190.24275    0.00000 -190.24275   -7.05080   -8.10208  300.67083  108.94340    0.99491    1.00000    0.00000
  3689.50000    6.13672    0.00000    0.00000 -190.24271    0.00000 -190.24271   -7.79853   -8.10207  300.70089  108.94747    0.99337    1.00000    0.00000
  3690.00000    6.13672    0.00000    0.00000 -190.24267    0.00000 -190.24267   -7.48586   -8.10207  300.72699  108.94752    0.99264    1.00000    0.00000
  3690.50000    6.13127    0.00000    0.00000 -190.24264    0.00000 -190.24264   -7.50888   -8.10207  300.73496  108.94830    0.99419    1.00000    0.00000
  3691.00000    6.13409    0.00000    0.00000 -190.24260    0.00000 -190.24260   -9.06791   -8.10207  300.75362  108.94969    0.99573    1.00000    0.00000
  3691.50000    6.13497    0.00000    0.00000 -190.24256    0.00000 -190.24256   -9.33390   -8.10206  300.77643  108.94785    0.99728    1.00000    0.00000
  3692.00000    6.13446    0.00000    0.00000 -190.24253    0.00000 -190.24253  -10.64140   -8.10206  300.80354  108.94857    0.99882    1.00000    0.00000
  3692.50000    6.13670    0.00000    0.00000 -190.24249    0.00000 -190.24249  -10.44765   -8.10206  300.83001  108.95062    1.00000    1.00000    0.00000
  3693.00000    6.13338    0.00000    0.00000 -190.24245    0.00000 -190.24245   -6.35242   -8.10206  300.83478  108.95171    1.00000    1.00000    0.00000
  3693.50000    6.13991    0.00000    0.00000 -190.24241    0.00000 -190.24241   -5.37169   -8.10205  300.84551  108.95054    1.00000    1.00000    0.00000
  3694.00000    6.13408    0.00000    0.00000 -190.24238    0.00000 -190.24238   -5.82268   -8.10205  300.86572  108.95169    1.00000    1.00000    0.00000
  3694.50000    6.14014    0.00000    0.00000 -190.24234    0.00000 -190.24234   -6.38331   -8.10205  300.88475  108.95186    1.00000    1.00000    0.00000
  3695.00000    6.12755    0.00000    0.00000 -190.24230    0.00000 -190.24230   -6.43673   -8.10204  300.91296  108.95270    0.99999    1.00000    0.00000
  3695.50000    6.13110    0.00000    0.00000 -190.24227    0.00000 -190.24227   -5.43369   -8.10204  300.93431  108.95413    0.99994    1.00000    0.00000
  3696.00000    6.12072    0.00000    0.00000 -190.24223    0.00000 -190.24223   -5.21701   -8.10204  300.94839  108.95408    0.99989    1.00000    0.00000
  3696.50000    6.15304    0.00000    0.00000 -190.24219    0.00000 -190.24219   -7.73505   -8.10204  300.96545  108.95343    0.99984    1.00000    0.00000
  3697.00000    6.13826    0.00000    0.00000 -190.24214    0.00000 -190.24214   -9.33166   -8.10203  300.99187  108.95466    0.99979    1.00000    0.00000
  3697.50000    6.13999    0.00000    0.00000 -190.24208    0.00000 -190.24208   -7.90069   -8.10203  301.01337  108.95474    0.99971    1.00000    0.00000
  3698.00000    6.12682    0.00000    0.00000 -190.24202    0.00000 -190.24202   -6.90455   -8.10203  301.03431  108.95533    0.99950    1.00000    0.00000
  3698.50000    6.12694    0.00000    0.00000 -190.24196    0.00000 -190.24196   -6.46112   -8.10202  301.05478  108.95716    0.99929    1.00000    0.00000
  3699.00000    6.13672    0.00000    0.00000 -190.24190    0.00000 -190.24190   -8.97023   -8.10202  301.06938  108.95702    0.99908    1.00000    0.00000
  3699.50000    6.13672    0.00000    0.00000 -190.24184    0.00000 -190.24184  -11.83042   -8.10202  301.09111  108.95880    0.99887    1.00000    0.00000
  3700.00000    6.13672    0.00000    0.00000 -190.24177    0.00000 -190.24177  -10.57141   -8.10201  301.11912  108.95878    0.99873    1.00000    0.00000
  3700.50000    6.13834    0.00000    0.00000 -190.24171    0.00000 -190.24171   -8.67369   -8.10201  301.14537  108.95927    0.99899    1.00000    0.00000
  3701.00000    6.13672    0.00000    0.00000 -190.24165    0.00000 -190.24165   -8.17050   -8.10200  301.16115  108.95981    0.99925    1.00000    0.00000
  3701.50000    6.15285    0.00000    0.00000 -190.24159    0.00000 -190.24159   -8.88037   -8.10200  301.17123  108.95943    0.99951    1.00000    0.00000
  3702.00000    6.15084    0.00000    0.00000 -190.24153    0.00000 -190.24153  -10.38165   -8.10200  301.18937  108.95890    0.99977    1.00000    0.00000
  3702.50000    6.15304    0.00000    0.00000 -190.24147    0.00000 -190.24147   -8.63170   -8.10199  301.21238  108.95974    0.99981    1.00000    0.00000
  3703.00000    6.15304    0.00000    0.00000 -190.24140    0.00000 -190.24140   -6.69129   -8.10199  301.23607  108.96039    0.99845    1.00000    0.00000
  3703.50000    6.15304    0.00000    0.00000 -190.24134    0.00000 -190.24134   -7.98632   -8.10199  301.25518  108.96107    0.99707    1.00000    0.00000
  3704.00000    6.15304    0.00000    0.00000 -190.24128    0.00000 -190.24128   -8.16640   -8.10198  301.27835  108.96163    0.99569    1.00000    0.00000
  3704.50000    6.15304    0.00000    0.00000 -190.24122    0.00000 -190.24122   -7.49159   -8.10198  301.29848  108.96302    0.99430    1.00000    0.00000
  3705.00000    6.15623    0.00000    0.00000 -190.24117    0.00000 -190.24117   -6.38663   -8.10198  301.31483  108.96303    0.99322    1.00000    0.00000
  3705.50000    6.15304    0.00000    0.00000 -190.24113    0.00000 -190.24113   -5.95413   -8.10197  301.33172  108.96416    0.99420    1.00000    0.00000
  3706.00000    6.14213    0.00000    0.00000 -190.24108    0.00000 -190.24108   -7.00954   -8.10197  301.34383  108.96427    0.99527    1.00000    0.00000
  3706.50000    6.13716    0.00000    0.00000 -190.24104    0.00000 -190.24104   -5.74561   -8.10197  301.36226  108.96543    0.99634    1.00000    0.00000
  3707.00000    6.11759    0.00000    0.00000 -190.24099    0.00000 -190.24099   -4.58852   -8.10197  301.37855  108.96495    0.99740    1.00000    0.00000
  3707.50000    6.10557    0.00000    0.00000 -190.24095    0.00000 -190.24095   -6.59886   -8.10196  301.40009  108.96532    0.99749    1.00000    0.00000
  3708.00000    6.09577    0.00000    0.00000 -190.24091    0.00000 -190.24091   -7.43736   -8.10196  301.42628  108.96760    0.98354    1.00000    0.00000
  3708.50000    6.08923    0.00000    0.00000 -190.24086    0.00000 -190.24086   -7.64274   -8.10196  301.44619  108.96795    0.96948    1.00000    0.00000
  3709.00000    6.10093    0.00000    0.00000 -190.24082    0.00000 -190.24082   -7.83158   -8.10195  301.46341  108.96868    0.95541    1.00000    0.00000
  3709.50000    6.10551    0.00000    0.00000 -190.24077    0.00000 -190.24077   -7.34745   -8.10195  301.48179  108.96916    0.94134    1.00000    0.00000
  3710.00000    6.09414    0.00000    0.00000 -190.24073    0.00000 -190.24073   -9.33662   -8.10195  301.50640  108.96943    0.92882    1.00000    0.00000
  3710.50000    6.08923    0.00000    0.00000 -190.24068    0.00000 -190.24068  -11.72750   -8.10195  301.53278  108.97158    0.94212    1.00000    0.00000
  3711.00000    6.08923    0.00000    0.00000 -190.24064    0.00000 -190.24064  -10.42495   -8.10194  301.54277  108.97229    0.95620    1.00000    0.00000
  3711.50000    6.08292    0.00000    0.00000 -190.24060    0.00000 -190.24060   -7.22541   -8.10194  301.54957  108.97181    0.97028    1.00000    0.00000
  3712.00000    6.08923    0.00000    0.00000 -190.24055    0.00000 -190.24055   -6.71800   -8.10194  301.57658  108.97366    0.98436    1.00000    0.00000
  3712.50000    6.08320    0.00000    0.00000 -190.24052    0.00000 -190.24052   -8.55759   -8.10193  301.60997  108.97537    0.99737    1.00000    0.00000
  3713.00000    6.07366    0.00000    0.00000 -190.24050    0.00000 -190.24050   -9.83735   -8.10193  301.63195  108.97673    0.99824    1.00000    0.00000
  3713.50000    6.07366    0.00000    0.00000 -190.24048    0.00000 -190.24048  -10.84305   -8.10193  301.64365  108.97843    0.99800    1.00000    0.00000
