~VERSION INFORMATION
VERS.           2.0  :CWLS LOG ASCII STANDARD - 2.0
WRAP.           NO   :One line per depth step
~WELL INFORMATION
STRT.m                          3480.00000: START DEPTH
STOP.m                          3910.00000: STOP DEPTH
STEP.m                             0.50000: STEP
NULL.                           -999.25000: NULL VALUE
COMP.                              Statoil: COMPANY
WELL.                           15/9 F-1 C: WELL
FLD .                                Volve: FIELD
LOC .                                     : LOCATION
PROV.                                     : PROVINCE
UWI .                                     : UNIQUE WELL ID
SRVC.                         Schlumberger: SERVICE COMPANY
DATE.                           05-04-2018: DATE
~CURVE INFORMATION
#MNEM.UNIT                                   Curve Description
#------------                              ----------------------
DEPT.m                                    : curve   1    Depth
C1C2.in                                   : curve   2    Caliper C1C2
QOZI.m3/D                                 : curve   3    Oil rate
QOZT.m3/D                                 : curve   4    Oil rate
QTZT.m3/D                                 : curve   5    Mixture rate
QWZI.m3/D                                 : curve   6    Water rate
QWZT.m3/D                                 : curve   7    Water rate
VASPIN.M/MN                               : curve   8    Apparent velocity
VASPINZ.M/MN                              : curve   9    Apparent velocity
WPRE.bara                                 : curve  10    Pressure
WTEP.°C                                   : curve  11    Temperature
YW_FLV.                                   : curve  12    Water holdup
YW_FLVZ.                                  : curve  13    Water holdup
INFL_Z.                                   : curve  14    Other
~PARAMETER INFORMATION
~OTHER INFORMATION
~ASCII LOG DATA
# ...
  3844.00000    6.09918    0.00000    0.00000 -106.77898    0.00000 -106.77898    2.79669   -4.59759  306.03161  109.22277    0.99987    1.00000    0.00000
  3844.50000    6.11134    0.00000    0.00000 -106.77901    0.00000 -106.77901   -4.32572   -4.59759  306.01877  109.22438    0.99983    1.00000    0.00000
  3845.00000    6.11178    0.00000    0.00000 -106.77904    0.00000 -106.77904  -10.41278   -4.59759  306.04722  109.22608    0.99979    1.00000    0.00000
  3845.50000    6.11176    0.00000    0.00000 -106.77908    0.00000 -106.77908   -9.73913   -4.59759  306.05804  109.22719    0.99975    1.00000    0.00000
  3846.00000    6.12629    0.00000    0.00000 -106.77911    0.00000 -106.77911   -2.62544   -4.59759  306.07827  109.23054    0.99974    1.00000    0.00000
  3846.50000    6.12428    0.00000    0.00000 -106.77915    0.00000 -106.77915    0.75996   -4.59759  306.10007  109.23147    0.99980    1.00000    0.00000
  3847.00000    6.14518    0.00000    0.00000 -106.77918    0.00000 -106.77918   -3.51941   -4.59759  306.10909  109.23329    0.99986    1.00000    0.00000
  3847.50000    6.14891    0.00000    0.00000 -106.77921    0.00000 -106.77921   -5.60479   -4.59759  306.15539  109.23326    0.99991    1.00000    0.00000
  3848.00000    6.14542    0.00000    0.00000 -106.77925    0.00000 -106.77925   -6.78090   -4.59759  306.14680  109.23356    0.99997    1.00000    0.00000
  3848.50000    6.13250    0.00000    0.00000 -106.77928    0.00000 -106.77928   -5.17484   -4.59759  306.14903  109.23461    0.99988    1.00000    0.00000
  3849.00000    6.12628    0.00000    0.00000 -106.77931    0.00000 -106.77931   -0.49356   -4.59759  306.16927  109.23782    0.99956    1.00000    0.00000
  3849.50000    6.15370    0.00000    0.00000 -106.77935    0.00000 -106.77935   -0.75610   -4.59759  306.19577  109.23828    0.99924    1.00000    0.00000
  3850.00000    6.14410    0.00000    0.00000 -106.77938    0.00000 -106.77938   -6.06629   -4.59760  306.24325  109.23783    0.99892    1.00000    0.00000
  3850.50000    6.14161    0.00000    0.00000 -106.77941    0.00000 -106.77941   -6.60191   -4.59760  306.22000  109.23931    0.99860    1.00000    0.00000
  3851.00000    6.13896    0.00000    0.00000 -106.77945    0.00000 -106.77945   -3.34032   -4.59760  306.23241  109.23974    0.99828    1.00000    0.00000
  3851.50000    6.12869    0.00000    0.00000 -106.77948    0.00000 -106.77948   -3.00267   -4.59760  306.26182  109.23972    0.99795    1.00000    0.00000
  3852.00000    6.13342    0.00000    0.00000 -106.77951    0.00000 -106.77951   -3.47753   -4.59760  306.29063  109.23947    0.99762    1.00000    0.00000
  3852.50000    6.14442   18.08797   -0.15914 -106.53064  -46.37451 -106.37151   -3.00046   -4.58710  306.31815  109.24016    0.99729    0.99797    1.00000
  3853.00000    6.16252   18.08797   -0.37163 -106.19831  -46.37451 -105.82667   -3.59787   -4.57309  306.29439  109.24155    0.99696    0.99527    1.00000
  3853.50000    6.16735   18.08797   -0.58413 -105.86597  -46.37451 -105.28184   -5.36777   -4.55908  306.33084  109.24292    0.99450    0.99256    1.00000
  3854.00000    6.18323   18.08797   -0.79663 -105.53364  -46.37451 -104.73701   -5.09733   -4.54506  306.34437  109.24317    0.98748    0.98985    1.00000
  3854.50000    6.16485   18.08797   -1.00913 -105.20130  -46.37451 -104.19217   -5.14896   -4.53105  306.37777  109.24248    0.98046    0.98714    1.00000
  3855.00000    6.16240   18.08797   -1.22163 -104.86897  -46.37451 -103.64734   -3.69873   -4.51704  306.38194  109.24446    0.97344    0.98444    1.00000
  3855.50000    6.16593   18.08797   -1.43413 -104.53663  -46.37451 -103.10251    0.11436   -4.50303  306.37398  109.24566    0.96642    0.98173    1.00000
  3856.00000    6.15167   18.08797   -1.64662 -104.20430  -46.37451 -102.55767    1.94449   -4.48901  306.41295  109.24565    0.96297    0.97902    1.00000
  3856.50000    6.17087   18.08797   -1.85912 -103.87196  -46.37451 -102.01284   -2.35833   -4.47500  306.42179  109.24826    0.96830    0.97632    1.00000
  3857.00000    6.16963   18.08797   -2.07162 -103.53963  -46.37451 -101.46801   -8.68102   -4.46099  306.44848  109.24814    0.97362    0.97361    1.00000
  3857.50000    6.15857   18.08797   -2.28412 -103.20729  -46.37451 -100.92317   -8.68676   -4.44697  306.46488  109.24913    0.97895    0.97090    1.00000
  3858.00000    6.17381   18.08797   -2.49662 -102.87496  -46.37451 -100.37834   -2.65758   -4.43296  306.48498  109.24900    0.98427    0.96819    1.00000
  3858.50000    6.19063   18.08797   -2.70912 -102.54262  -46.37451  -99.83350    2.47839   -4.41895  306.50929  109.25053    0.98705    0.96549    1.00000
  3859.00000    6.18102   18.08797   -2.92162 -102.21029  -46.37451  -99.28867   -2.03352   -4.40494  306.49673  109.25218    0.98254    0.96278    1.00000
  3859.50000    6.11627   18.08797   -3.13411 -101.87795  -46.37451  -98.74384   -7.39046   -4.39092  306.51086  109.25444    0.97804    0.96007    1.00000
  3860.00000    6.17857   18.08797   -3.34661 -101.54562  -46.37451  -98.19900   -7.19305   -4.37691  306.54425  109.25187    0.97353    0.95737    1.00000
  3860.50000    6.16372   18.08797   -3.55911 -101.21328  -46.37451  -97.65417   -3.69494   -4.36290  306.58868  109.25524    0.96902    0.95466    1.00000
  3861.00000    6.16615   18.08797   -3.77161 -100.88095  -46.37451  -97.10934   -1.67695   -4.34889  306.60428  109.25820    0.96497    0.95195    1.00000
  3861.50000    6.15849   18.08797   -3.98411 -100.54861  -46.37451  -96.56450   -3.36474   -4.33487  306.58445  109.26095    0.96247    0.94924    1.00000
  3862.00000    6.14108   18.08797   -4.19661 -100.21628  -46.37451  -96.01967   -3.38404   -4.32086  306.59962  109.26305    0.95997    0.94654    1.00000
  3862.50000    6.14068   18.08797   -4.40911  -99.88394  -46.37451  -95.47484   -1.44765   -4.30685  306.61545  109.26202    0.95747    0.94383    1.00000
  3863.00000    6.15226   18.08797   -4.62160  -99.55161  -46.37451  -94.93000    0.65031   -4.29283  306.64745  109.26555    0.95497    0.94112    1.00000
  3863.50000    6.15242   18.08797   -4.83410  -99.21927  -46.37451  -94.38517   -6.13200   -4.27882  306.67191  109.26745    0.95488    0.93842    1.00000
  3864.00000    6.15520   18.08797   -5.04660  -98.88694  -46.37451  -93.84033  -10.40453   -4.26481  306.69267  109.26794    0.96418    0.93571    1.00000
  3864.50000    6.15212   18.08797   -5.25910  -98.55460  -46.37451  -93.29550   -9.63851   -4.25080  306.69508  109.27071    0.97353    0.93300    1.00000
  3865.00000    6.14605   18.08797   -5.47160  -98.22227  -46.37451  -92.75067   -3.97049   -4.23678  306.69747  109.27255    0.98288    0.93029    1.00000
  3865.50000    6.15353   18.08797   -5.68410  -97.88993  -46.37451  -92.20583    0.10306   -4.22277  306.72188  109.27503    0.99223    0.92759    1.00000
  3866.00000    6.14601   18.08797   -5.89660  -97.55760  -46.37451  -91.66100   -3.30935   -4.20876  306.74206  109.27827    0.99682    0.92488    1.00000
  3866.50000    6.14473   18.08797   -6.10909  -97.22526  -46.37451  -91.11617   -4.02663   -4.19475  306.77890  109.27912    0.97802    0.92217    1.00000
  3867.00000    6.14197   18.08797   -6.32159  -96.89293  -46.37451  -90.57133   -3.08980   -4.18073  306.81082  109.28155    0.95922    0.91947    1.00000
  3867.50000    6.14265   18.08797   -6.53409  -96.56059  -46.37451  -90.02650   -2.36723   -4.16672  306.81475  109.28396    0.94042    0.91676    1.00000
  3868.00000    6.13465   18.08797   -6.74659  -96.22826  -46.37451  -89.48167   -4.11769   -4.15271  306.81029  109.28472    0.92162    0.91405    1.00000
  3868.50000    6.12701   18.08797   -6.95909  -95.89592  -46.37451  -88.93683   -5.91752   -4.13870  306.82001  109.28597    0.90407    0.91134    1.00000
  3869.00000    6.15017   18.08797   -7.17159  -95.56359  -46.37451  -88.39200   -4.55371   -4.12468  306.86022  109.28623    0.89424    0.90864    1.00000
  3869.50000    6.16744   18.08797   -7.38408  -95.23125  -46.37451  -87.84717    0.75951   -4.11067  306.89964  109.28879    0.88441    0.90593    1.00000
