~VERSION INFORMATION
VERS.           2.0  :CWLS LOG ASCII STANDARD - 2.0
WRAP.           NO   :One line per depth step
~WELL INFORMATION
STRT.m                          3480.00000: START DEPTH
STOP.m                          3910.00000: STOP DEPTH
STEP.m                             0.50000: STEP
NULL.                           -999.25000: NULL VALUE
COMP.                              Statoil: COMPANY
WELL.                           15/9 F-1 C: WELL
FLD .                                Volve: FIELD
LOC .                                     : LOCATION
PROV.                                     : PROVINCE
UWI .                                     : UNIQUE WELL ID
SRVC.                         Schlumberger: SERVICE COMPANY
DATE.                           05-04-2018: DATE
~CURVE INFORMATION
#MNEM.UNIT                                   Curve Description
#------------                              ----------------------
DEPT.m                                    : curve   1    Depth
C1C2.in                                   : curve   2    Caliper C1C2
QOZI.m3/D                                 : curve   3    Oil rate
QOZT.m3/D                                 : curve   4    Oil rate
QTZT.m3/D                                 : curve   5    Mixture rate
QWZI.m3/D                                 : curve   6    Water rate
QWZT.m3/D                                 : curve   7    Water rate
VASPIN.M/MN                               : curve   8    Apparent velocity
VASPINZ.M/MN                              : curve   9    Apparent velocity
WPRE.bara                                 : curve  10    Pressure
WTEP.°C                                   : curve  11    Temperature
YW_FLV.                                   : curve  12    Water holdup
YW_FLVZ.                                  : curve  13    Water holdup
INFL_Z.                                   : curve  14    Other
~PARAMETER INFORMATION
~OTHER INFORMATION
~ASCII LOG DATA
# ...
  3558.00000    6.13196    0.00000  -25.95464  -26.38082    0.00000   -0.42618   -5.59359   -1.18523  296.45121  108.85841    0.00218    0.01615    0.00000
  3558.50000    6.14248    0.00000  -25.95464  -26.38081    0.00000   -0.42618   -8.00876   -1.18523  296.47751  108.85879    0.00171    0.01615    0.00000
  3559.00000    6.08521    0.00000  -25.95463  -26.38081    0.00000   -0.42618   -6.51661   -1.18523  296.50614  108.85901    0.00124    0.01615    0.00000
  3559.50000    6.14021    0.00000  -25.95463  -26.38080    0.00000   -0.42618    1.01358   -1.18523  296.50185  108.85928    0.00215    0.01615    0.00000
  3560.00000    6.12790    0.00000  -25.95462  -26.38080    0.00000   -0.42618    3.64842   -1.18523  296.49820  108.86065    0.00336    0.01615    0.00000
  3560.50000    6.12555    0.00000  -25.95461  -26.38079    0.00000   -0.42618   -7.86395   -1.18523  296.49831  108.85965    0.00456    0.01615    0.00000
  3561.00000    6.13094    0.00000  -25.95461  -26.38079    0.00000   -0.42618   -9.19092   -1.18523  296.51274  108.86099    0.00576    0.01615    0.00000
  3561.50000    6.12390    0.00000  -25.95460  -26.38078    0.00000   -0.42618   -7.76705   -1.18523  296.52757  108.86149    0.00697    0.01615    0.00000
  3562.00000    6.12039    0.00000  -25.95458  -26.38076    0.00000   -0.42618    0.82002   -1.18523  296.54259  108.86180    0.00794    0.01615    0.00000
  3562.50000    6.12751    0.00000  -25.95453  -26.38071    0.00000   -0.42618    3.34299   -1.18523  296.55985  108.86029    0.00884    0.01616    0.00000
  3563.00000    6.11941    0.00000  -25.95448  -26.38066    0.00000   -0.42618   -3.67042   -1.18522  296.56133  108.85916    0.00975    0.01616    0.00000
  3563.50000    6.11941    0.00000  -25.95443  -26.38061    0.00000   -0.42618   -3.07781   -1.18522  296.56176  108.85883    0.01066    0.01616    0.00000
  3564.00000    6.11570    0.00000  -25.95438  -26.38056    0.00000   -0.42618   -1.33339   -1.18522  296.55496  108.85795    0.01157    0.01616    0.00000
  3564.50000    6.11631    0.00000  -25.95434  -26.38052    0.00000   -0.42618    3.67153   -1.18522  296.56603  108.85831    0.01354    0.01616    0.00000
  3565.00000    6.10421    0.00000  -25.95429  -26.38047    0.00000   -0.42618   -1.41572   -1.18522  296.59465  108.85827    0.01584    0.01616    0.00000
  3565.50000    6.09540    0.00000  -25.95424  -26.38042    0.00000   -0.42618   -4.93002   -1.18522  296.61657  108.85769    0.01814    0.01616    0.00000
  3566.00000    6.09372    0.00000  -25.95419  -26.38037    0.00000   -0.42618   -3.51616   -1.18522  296.62069  108.85652    0.02044    0.01616    0.00000
  3566.50000    6.09761    0.00000  -25.95414  -26.38032    0.00000   -0.42618    2.65349   -1.18522  296.59632  108.85680    0.02274    0.01616    0.00000
  3567.00000    6.10011    0.00000  -25.95410  -26.38027    0.00000   -0.42618    5.89132   -1.18522  296.60053  108.85594    0.02273    0.01616    0.00000
  3567.50000    6.10587    0.00000  -25.95405  -26.38023    0.00000   -0.42618   -3.69061   -1.18522  296.62476  108.85557    0.02188    0.01616    0.00000
  3568.00000    6.10417    0.00000  -25.95400  -26.38018    0.00000   -0.42618   -5.79051   -1.18522  296.65826  108.85783    0.02104    0.01616    0.00000
  3568.50000    6.11631    0.00000  -25.95395  -26.38013    0.00000   -0.42618   -4.16986   -1.18522  296.67415  108.85736    0.02019    0.01616    0.00000
  3569.00000    6.12926    0.00000  -25.95390  -26.38008    0.00000   -0.42618    3.96624   -1.18522  296.65755  108.85697    0.01935    0.01616    0.00000
  3569.50000    6.12400    0.00000  -25.95386  -26.38003    0.00000   -0.42618    5.10203   -1.18522  296.65337  108.85659    0.01826    0.01616    0.00000
  3570.00000    6.12730    0.00000  -25.95381  -26.37999    0.00000   -0.42618   -5.14293   -1.18522  296.65776  108.85594    0.01705    0.01616    0.00000
  3570.50000    6.11941    0.00000  -25.95377  -26.37995    0.00000   -0.42618   -5.44253   -1.18522  296.68367  108.85654    0.01585    0.01616    0.00000
  3571.00000    6.08496    0.00000  -25.95373  -26.37990    0.00000   -0.42618   -3.64077   -1.18521  296.70296  108.85826    0.01465    0.01616    0.00000
  3571.50000    6.11391    0.00000  -25.95368  -26.37986    0.00000   -0.42618    5.02640   -1.18521  296.71067  108.85948    0.01345    0.01616    0.00000
  3572.00000    6.11991    0.00000  -25.95364  -26.37982    0.00000   -0.42618    2.61753   -1.18521  296.72178  108.86029    0.01291    0.01616    0.00000
  3572.50000    6.12699    0.00000  -25.95360  -26.37977    0.00000   -0.42618   -5.40856   -1.18521  296.70774  108.86117    0.01269    0.01616    0.00000
  3573.00000    6.12849    0.00000  -25.95355  -26.37973    0.00000   -0.42618   -5.39093   -1.18521  296.71712  108.86160    0.01246    0.01616    0.00000
  3573.50000    6.10809    0.00000  -25.95351  -26.37969    0.00000   -0.42618   -2.64055   -1.18521  296.72855  108.86140    0.01223    0.01616    0.00000
  3574.00000    6.12338    0.00000  -25.95347  -26.37964    0.00000   -0.42618    3.82496   -1.18521  296.74845  108.86094    0.01201    0.01616    0.00000
  3574.50000    6.12605    0.00000  -25.95342  -26.37960    0.00000   -0.42618   -1.70121   -1.18521  296.77280  108.86095    0.01256    0.01616    0.00000
  3575.00000    6.10707    0.00000  -25.95338  -26.37956    0.00000   -0.42618   -5.40506   -1.18521  296.76796  108.86276    0.01355    0.01616    0.00000
  3575.50000    6.12412    0.00000  -25.95334  -26.37951    0.00000   -0.42618   -4.77139   -1.18521  296.76943  108.86028    0.01453    0.01616    0.00000
  3576.00000    6.11651    0.00000  -25.95329  -26.37947    0.00000   -0.42618   -0.82387   -1.18521  296.76310  108.86077    0.01552    0.01616    0.00000
  3576.50000    6.10768    0.00000  -25.95325  -26.37943    0.00000   -0.42618    2.13157   -1.18521  296.77897  108.86036    0.01651    0.01616    0.00000
  3577.00000    6.10665    0.00000  -25.95321  -26.37938    0.00000   -0.42618   -3.37675   -1.18521  296.80991  108.86276    0.01704    0.01616    0.00000
  3577.50000    6.10394    0.00000  -25.95316  -26.37934    0.00000   -0.42618   -4.06787   -1.18521  296.81685  108.86262    0.01729    0.01616    0.00000
  3578.00000    6.10394    0.00000  -25.95312  -26.37930    0.00000   -0.42618   -1.09374   -1.18521  296.82107  108.86265    0.01753    0.01616    0.00000
  3578.50000    6.10394    0.00000  -25.95308  -26.37925    0.00000   -0.42618    5.46962   -1.18521  296.81061  108.86363    0.01778    0.01616    0.00000
  3579.00000    6.11049    0.00000  -25.95303  -26.37921    0.00000   -0.42618   -0.27792   -1.18521  296.82502  108.86201    0.01803    0.01616    0.00000
  3579.50000    6.10613  -23.60075  -25.06982  -31.44806  159.04701   -6.37824   -6.95587   -1.39958  296.84878  108.86292    0.01685    0.05243    1.00000
  3580.00000    6.12045  -23.60075  -23.73354  -39.11733  159.04701  -15.38380   -5.78703   -1.72393  296.86319  108.86408    0.01465    0.10731    1.00000
  3580.50000    6.13982  -23.60075  -22.39725  -46.78661  159.04701  -24.38936   -2.69926   -2.04828  296.86843  108.86402    0.01245    0.16220    1.00000
  3581.00000    6.13033  -23.60075  -21.06096  -54.45588  159.04701  -33.39491    5.16465   -2.37263  296.86073  108.86298    0.01026    0.21708    1.00000
  3581.50000    6.14377  -23.60075  -19.72468  -62.12515  159.04701  -42.40047   -0.45918   -2.69697  296.87290  108.86411    0.00806    0.27197    1.00000
  3582.00000    6.14822  -23.60075  -18.38839  -69.79442  159.04701  -51.40603   -5.12095   -3.02132  296.89535  108.86363    0.00662    0.32685    1.00000
  3582.50000    6.14234  -23.60075  -17.05210  -77.46369  159.04701  -60.41159   -4.12888   -3.34567  296.90118  108.86250    0.00578    0.38173    1.00000
  3583.00000    6.13044  -23.60075  -15.71582  -85.13296  159.04701  -69.41714    0.44427   -3.67002  296.90214  108.86618    0.00494    0.43662    1.00000
  3583.50000    6.11612  -23.60075  -14.37953  -92.80223  159.04701  -78.42270    1.74753   -3.99437  296.90715  108.86807    0.00410    0.49150    1.00000
