~VERSION INFORMATION
VERS.           2.0  :CWLS LOG ASCII STANDARD - 2.0
WRAP.           NO   :One line per depth step
~WELL INFORMATION
STRT.m                          3480.00000: START DEPTH
STOP.m                          3910.00000: STOP DEPTH
STEP.m                             0.50000: STEP
NULL.                           -999.25000: NULL VALUE
COMP.                              Statoil: COMPANY
WELL.                           15/9 F-1 C: WELL
FLD .                                Volve: FIELD
LOC .                                     : LOCATION
PROV.                                     : PROVINCE
UWI .                                     : UNIQUE WELL ID
SRVC.                         Schlumberger: SERVICE COMPANY
DATE.                           05-04-2018: DATE
~CURVE INFORMATION
#MNEM.UNIT                                   Curve Description
#------------                              ----------------------
DEPT.m                                    : curve   1    Depth
C1C2.in                                   : curve   2    Caliper C1C2
QOZI.m3/D                                 : curve   3    Oil rate
QOZT.m3/D                                 : curve   4    Oil rate
QTZT.m3/D                                 : curve   5    Mixture rate
QWZI.m3/D                                 : curve   6    Water rate
QWZT.m3/D                                 : curve   7    Water rate
VASPIN.M/MN                               : curve   8    Apparent velocity
VASPINZ.M/MN                              : curve   9    Apparent velocity
WPRE.bara                                 : curve  10    Pressure
WTEP.°C                                   : curve  11    Temperature
YW_FLV.                                   : curve  12    Water holdup
YW_FLVZ.                                  : curve  13    Water holdup
INFL_Z.                                   : curve  14    Other
~PARAMETER INFORMATION
~OTHER INFORMATION
~ASCII LOG DATA
# ...
  3870.00000    6.15589   18.08797   -7.59658  -94.89892  -46.37451  -87.30233    0.30168   -4.09666  306.90131  109.29289    0.87459    0.90322    1.00000
  3870.50000    6.16144   18.08797   -7.80908  -94.56658  -46.37451  -86.75750   -2.69751   -4.08264  306.89079  109.29767    0.86476    0.90052    1.00000
  3871.00000    6.18951   18.08797   -8.02158  -94.23424  -46.37451  -86.21266   -4.17576   -4.06863  306.90983  109.29766    0.86036    0.89781    1.00000
  3871.50000    6.19093   18.08797   -8.23408  -93.90191  -46.37451  -85.66783   -4.80088   -4.05462  306.94811  109.30024    0.88775    0.89510    1.00000
  3872.00000    6.17426   18.08797   -8.44658  -93.56957  -46.37451  -85.12300   -3.83870   -4.04061  306.98196  109.30303    0.91638    0.89239    1.00000
  3872.50000    6.19640   18.08797   -8.65908  -93.23724  -46.37451  -84.57816   -3.48133   -4.02659  306.98324  109.30596    0.94500    0.88969    1.00000
  3873.00000    6.18009   18.08797   -8.87157  -92.90490  -46.37451  -84.03333   -2.29746   -4.01258  306.98341  109.30716    0.97362    0.88698    1.00000
  3873.50000    6.18323   18.08797   -9.08407  -92.57257  -46.37451  -83.48850   -1.06553   -3.99857  307.00607  109.30821    0.99936    0.88427    1.00000
  3874.00000    6.18323   18.08797   -9.29657  -92.24023  -46.37451  -82.94366   -2.35257   -3.98456  307.04152  109.31087    0.99999    0.88157    1.00000
  3874.50000    6.17942   18.08797   -9.50907  -91.90790  -46.37451  -82.39883   -3.30455   -3.97054  307.06386  109.31491    0.99999    0.87886    1.00000
  3875.00000    6.16279   18.08797   -9.72157  -91.57556  -46.37451  -81.85400   -3.44763   -3.95653  307.07078  109.31550    0.99999    0.87615    1.00000
  3875.50000    6.16646   18.08797   -9.93407  -91.24323  -46.37451  -81.30916   -1.99977   -3.94252  307.09166  109.31815    1.00000    0.87344    1.00000
  3876.00000    6.15891   18.08797  -10.14657  -90.91089  -46.37451  -80.76433   -1.85912   -3.92850  307.11068  109.32270    1.00000    0.87074    1.00000
  3876.50000    6.17087   18.08797  -10.35906  -90.57856  -46.37451  -80.21949   -6.02719   -3.91449  307.12618  109.32801    1.00000    0.86803    1.00000
  3877.00000    6.18323   18.08797  -10.57156  -90.24622  -46.37451  -79.67466   -6.22540   -3.90048  307.14366  109.33041    1.00000    0.86532    1.00000
  3877.50000    6.17167   18.08797  -10.78406  -89.91389  -46.37451  -79.12983   -3.64874   -3.88647  307.16104  109.33226    1.00000    0.86262    1.00000
  3878.00000    6.17763   18.08797  -10.99656  -89.58155  -46.37451  -78.58499    4.33202   -3.87245  307.17385  109.33558    1.00000    0.85991    1.00000
  3878.50000    6.19070   18.08797  -11.20906  -89.24922  -46.37451  -78.04016    2.42667   -3.85844  307.19302  109.33877    0.99842    0.85720    1.00000
  3879.00000    6.16371   18.08797  -11.42156  -88.91688  -46.37451  -77.49533   -8.94471   -3.84443  307.20845  109.34037    0.97927    0.85449    1.00000
  3879.50000    6.17178   18.08797  -11.63406  -88.58455  -46.37451  -76.95049   -9.91584   -3.83042  307.22708  109.34296    0.95893    0.85179    1.00000
  3880.00000    6.16862   18.08797  -11.84655  -88.25221  -46.37451  -76.40566   -8.14424   -3.81640  307.24907  109.34679    0.93859    0.84908    1.00000
  3880.50000    6.18026   18.08797  -12.05905  -87.91988  -46.37451  -75.86083   -0.00240   -3.80239  307.26951  109.35137    0.91825    0.84637    1.00000
  3881.00000    6.19367   18.08797  -12.27155  -87.58754  -46.37451  -75.31599    0.98141   -3.78838  307.28050  109.35600    0.89997    0.84367    1.00000
  3881.50000    6.18543   18.08797  -12.48405  -87.25521  -46.37451  -74.77116   -3.85503   -3.77436  307.29727  109.36082    0.90751    0.84096    1.00000
  3882.00000    6.19782   18.08797  -12.69655  -86.92287  -46.37451  -74.22632   -4.01184   -3.76035  307.32285  109.36117    0.91744    0.83825    1.00000
  3882.50000    6.19733   18.08797  -12.90905  -86.59054  -46.37451  -73.68149   -4.58434   -3.74634  307.34327  109.36434    0.92738    0.83554    1.00000
  3883.00000    6.19753   18.08797  -13.12154  -86.25820  -46.37451  -73.13666   -2.99762   -3.73233  307.36583  109.36654    0.93731    0.83284    1.00000
  3883.50000    6.16925   18.08797  -13.33404  -85.92587  -46.37451  -72.59182   -3.40650   -3.71831  307.38952  109.37014    0.94710    0.83013    1.00000
  3884.00000    6.15830   18.08797  -13.54654  -85.59353  -46.37451  -72.04699   -4.10982   -3.70430  307.38897  109.37404    0.94540    0.82742    1.00000
  3884.50000    6.17681   18.08797  -13.75904  -85.26120  -46.37451  -71.50216   -0.74164   -3.69029  307.39792  109.37483    0.94306    0.82472    1.00000
  3885.00000    6.16862   18.08797  -13.97154  -84.92886  -46.37451  -70.95732    0.34734   -3.67628  307.42864  109.37650    0.94072    0.82201    1.00000
  3885.50000    6.16862   18.08797  -14.18404  -84.59653  -46.37451  -70.41249   -5.09345   -3.66226  307.45873  109.38142    0.93839    0.81930    1.00000
  3886.00000    6.16155   18.08797  -14.39654  -84.26419  -46.37451  -69.86766   -6.93585   -3.64825  307.46195  109.38608    0.93595    0.81659    1.00000
  3886.50000    6.14817   18.08797  -14.60903  -83.93186  -46.37451  -69.32282   -6.15453   -3.63424  307.46901  109.38959    0.92665    0.81389    1.00000
  3887.00000    6.16268   18.08797  -14.82153  -83.59952  -46.37451  -68.77799   -1.60249   -3.62022  307.49954  109.39128    0.91671    0.81118    1.00000
  3887.50000    6.16644   18.08797  -15.03403  -83.26719  -46.37451  -68.23316   -1.56804   -3.60621  307.53348  109.39368    0.90678    0.80847    1.00000
  3888.00000    6.16039   18.08797  -15.24653  -82.93485  -46.37451  -67.68832   -4.93485   -3.59220  307.54630  109.39897    0.89684    0.80577    1.00000
  3888.50000    6.16931   18.08797  -15.45903  -82.60252  -46.37451  -67.14349   -4.95107   -3.57819  307.54276  109.40330    0.88760    0.80306    1.00000
  3889.00000    6.13223   18.08797  -15.67153  -82.27018  -46.37451  -66.59865   -4.20600   -3.56417  307.56331  109.40316    0.89504    0.80035    1.00000
  3889.50000    6.13060   18.08797  -15.88403  -81.93785  -46.37451  -66.05382   -1.48282   -3.55016  307.58919  109.40708    0.90518    0.79764    1.00000
  3890.00000    6.12175   18.08797  -16.09652  -81.60551  -46.37451  -65.50899   -2.26057   -3.53615  307.59808  109.41260    0.91533    0.79494    1.00000
  3890.50000    6.09830   18.08797  -16.30902  -81.27318  -46.37451  -64.96415   -3.37322   -3.52214  307.61385  109.41600    0.92548    0.79223    1.00000
  3891.00000    6.08990   18.08797  -16.52152  -80.94084  -46.37451  -64.41932   -0.64844   -3.50812  307.63190  109.41857    0.93522    0.78952    1.00000
  3891.50000    6.09168   18.08797  -16.73402  -80.60851  -46.37451  -63.87449    1.87268   -3.49411  307.67215  109.42087    0.90274    0.78682    1.00000
  3892.00000    6.12188   18.08797  -16.94652  -80.27617  -46.37451  -63.32965   -2.22250   -3.48010  307.69533  109.42378    0.86338    0.78411    1.00000
  3892.50000    6.14250   18.08797  -17.15902  -79.94384  -46.37451  -62.78482   -9.83896   -3.46608  307.68739  109.42999    0.82403    0.78140    1.00000
  3893.00000    6.15365   18.08797  -17.37152  -79.61150  -46.37451  -62.23999   -9.72473   -3.45207  307.68947  109.43306    0.78467    0.77869    1.00000
  3893.50000    6.15365   18.08797  -17.58401  -79.27917  -46.37451  -61.69515   -4.44708   -3.43806  307.71866  109.43498    0.74531    0.77599    1.00000
  3894.00000    6.15365   18.08797  -17.79651  -78.94683  -46.37451  -61.15032    0.65536   -3.42405  307.74355  109.43877    0.74565    0.77328    1.00000
  3894.50000    6.16209   18.08797  -18.00901  -78.61450  -46.37451  -60.60548    0.91450   -3.41003  307.76458  109.44297    0.75359    0.77057    1.00000
  3895.00000    6.15670 -999.25000  -18.08498  -78.49579 -999.25000  -60.41081   -4.34754   -3.40503  307.78371  109.44477    0.76152    0.76961    0.00000
  3895.50000    6.16484 -999.25000  -18.08498  -78.49595 -999.25000  -60.41098   -5.84241   -3.40503  307.80400  109.44860    0.76945    0.76961    0.00000
