~VERSION INFORMATION
VERS.           2.0  :CWLS LOG ASCII STANDARD - 2.0
WRAP.           NO   :One line per depth step
~WELL INFORMATION
STRT.m                          3480.00000: START DEPTH
STOP.m                          3910.00000: STOP DEPTH
STEP.m                             0.50000: STEP
NULL.                           -999.25000: NULL VALUE
COMP.                              Statoil: COMPANY
WELL.                           15/9 F-1 C: WELL
FLD .                                Volve: FIELD
LOC .                                     : LOCATION
PROV.                                     : PROVINCE
UWI .                                     : UNIQUE WELL ID
SRVC.                         Schlumberger: SERVICE COMPANY
DATE.                           05-04-2018: DATE
~CURVE INFORMATION
#MNEM.UNIT                                   Curve Description
#------------                              ----------------------
DEPT.m                                    : curve   1    Depth
C1C2.in                                   : curve   2    Caliper C1C2
QOZI.m3/D                                 : curve   3    Oil rate
QOZT.m3/D                                 : curve   4    Oil rate
QTZT.m3/D                                 : curve   5    Mixture rate
QWZI.m3/D                                 : curve   6    Water rate
QWZT.m3/D                                 : curve   7    Water rate
VASPIN.M/MN                               : curve   8    Apparent velocity
VASPINZ.M/MN                              : curve   9    Apparent velocity
WPRE.bara                                 : curve  10    Pressure
WTEP.°C                                   : curve  11    Temperature
YW_FLV.                                   : curve  12    Water holdup
YW_FLVZ.                                  : curve  13    Water holdup
INFL_Z.                                   : curve  14    Other
~PARAMETER INFORMATION
~OTHER INFORMATION
~ASCII LOG DATA
# ...
  3740.00000    6.10034    0.00000    0.00000 -190.23916    0.00000 -190.23916   -8.03488   -8.10181  302.60449  109.01419    0.99946    1.00000    0.00000
  3740.50000    6.12113    0.00000    0.00000 -190.23911    0.00000 -190.23911   -8.97518   -8.10181  302.61606  109.01455    0.99950    1.00000    0.00000
  3741.00000    6.10704    0.00000    0.00000 -190.23907    0.00000 -190.23907   -8.18682   -8.10181  302.62656  109.01451    0.99961    1.00000    0.00000
  3741.50000    6.11492    0.00000    0.00000 -190.23903    0.00000 -190.23903   -7.73596   -8.10181  302.65201  109.01523    0.99973    1.00000    0.00000
  3742.00000    6.12113    0.00000    0.00000 -190.23898    0.00000 -190.23898   -6.26968   -8.10180  302.67282  109.01525    0.99984    1.00000    0.00000
  3742.50000    6.10919    0.00000    0.00000 -190.23894    0.00000 -190.23894   -4.77441   -8.10180  302.68598  109.01719    0.99996    1.00000    0.00000
  3743.00000    6.09043    0.00000    0.00000 -190.23889    0.00000 -190.23889   -6.58157   -8.10180  302.69080  109.01624    0.99946    1.00000    0.00000
  3743.50000    6.11895    0.00000    0.00000 -190.23886    0.00000 -190.23886   -8.57899   -8.10180  302.70956  109.01812    0.99862    1.00000    0.00000
  3744.00000    6.13438    0.00000    0.00000 -190.23885    0.00000 -190.23885   -8.62348   -8.10179  302.73639  109.01876    0.99778    1.00000    0.00000
  3744.50000    6.12182    0.00000    0.00000 -190.23885    0.00000 -190.23885   -8.04736   -8.10179  302.74784  109.02060    0.99694    1.00000    0.00000
  3745.00000    6.12096    0.00000    0.00000 -190.23885    0.00000 -190.23885   -8.05231   -8.10179  302.76167  109.01955    0.99610    1.00000    0.00000
  3745.50000    6.11035    0.00000    0.00000 -190.23884    0.00000 -190.23884   -9.20624   -8.10179  302.78136  109.02112    0.99628    1.00000    0.00000
  3746.00000    6.10551    0.00000    0.00000 -190.23884    0.00000 -190.23884  -10.10582   -8.10179  302.81109  109.02162    0.99712    1.00000    0.00000
  3746.50000    6.10969    0.00000    0.00000 -190.23883    0.00000 -190.23883   -9.23834   -8.10179  302.82359  109.02273    0.99796    1.00000    0.00000
  3747.00000    6.11420    0.00000    0.00000 -190.23883    0.00000 -190.23883   -7.46184   -8.10179  302.82782  109.02316    0.99880    1.00000    0.00000
  3747.50000    6.11459    0.00000    0.00000 -190.23882    0.00000 -190.23882   -6.74036   -8.10178  302.85001  109.02413    0.99964    1.00000    0.00000
  3748.00000    6.11437    0.00000    0.00000 -190.23882    0.00000 -190.23882   -8.81209   -8.10178  302.87001  109.02477    0.99548    1.00000    0.00000
  3748.50000    6.10901    0.00000    0.00000 -190.23881    0.00000 -190.23881  -10.61697   -8.10178  302.88934  109.02537    0.98765    1.00000    0.00000
  3749.00000    6.11558    0.00000    0.00000 -190.23881    0.00000 -190.23881  -10.85481   -8.10178  302.90020  109.02630    0.97983    1.00000    0.00000
  3749.50000    6.12113    0.00000    0.00000 -190.23880    0.00000 -190.23880   -9.58380   -8.10178  302.92133  109.02786    0.97200    1.00000    0.00000
  3750.00000    6.12113    0.00000    0.00000 -190.23880    0.00000 -190.23880   -6.88358   -8.10178  302.94962  109.02855    0.96417    1.00000    0.00000
  3750.50000    6.12113    0.00000    0.00000 -190.23879    0.00000 -190.23879   -6.39595   -8.10177  302.96247  109.02967    0.95497    1.00000    0.00000
  3751.00000    6.12113    0.00000    0.00000 -190.23879    0.00000 -190.23879   -7.89085   -8.10177  302.97141  109.02969    0.94464    1.00000    0.00000
  3751.50000    6.12113    0.00000    0.00000 -190.23879    0.00000 -190.23879   -7.77630   -8.10177  302.98150  109.03059    0.93430    1.00000    0.00000
  3752.00000    6.12113    0.00000    0.00000 -190.23880    0.00000 -190.23880   -7.17717   -8.10177  302.99983  109.03173    0.92397    1.00000    0.00000
  3752.50000    6.12113    0.00000    0.00000 -190.23881    0.00000 -190.23881   -7.25832   -8.10177  303.02069  109.03394    0.91363    1.00000    0.00000
  3753.00000    6.12113    0.00000    0.00000 -190.23881    0.00000 -190.23881   -6.89413   -8.10177  303.03423  109.03250    0.90928    1.00000    0.00000
  3753.50000    6.12113    0.00000    0.00000 -190.23882    0.00000 -190.23882   -8.56474   -8.10177  303.05717  109.03274    0.91050    1.00000    0.00000
  3754.00000    6.08446    0.00000    0.00000 -190.23882    0.00000 -190.23882   -7.86615   -8.10177  303.07788  109.03330    0.91173    1.00000    0.00000
  3754.50000    6.13099    0.00000    0.00000 -190.23883    0.00000 -190.23883   -5.80255   -8.10177  303.08261  109.03345    0.91295    1.00000    0.00000
  3755.00000    6.10428    0.00000    0.00000 -190.23884    0.00000 -190.23884   -5.64642   -8.10176  303.08950  109.03466    0.91418    1.00000    0.00000
  3755.50000    6.14907    0.00000    0.00000 -190.23884    0.00000 -190.23884   -6.59336   -8.10176  303.10563  109.03551    0.91462    1.00000    0.00000
  3756.00000    6.13741    0.00000    0.00000 -190.23885    0.00000 -190.23885   -7.99507   -8.10176  303.13054  109.03732    0.91423    1.00000    0.00000
  3756.50000    6.13725    0.00000    0.00000 -190.23885    0.00000 -190.23885   -7.22013   -8.10176  303.15705  109.03860    0.91385    1.00000    0.00000
  3757.00000    6.13122    0.00000    0.00000 -190.23886    0.00000 -190.23886   -6.81572   -8.10176  303.17073  109.03977    0.91347    1.00000    0.00000
  3757.50000    6.11956    0.00000    0.00000 -190.23886    0.00000 -190.23886   -8.31917   -8.10176  303.18807  109.04014    0.91309    1.00000    0.00000
  3758.00000    6.11869    0.00000    0.00000 -190.23887    0.00000 -190.23887  -10.38886   -8.10176  303.19738  109.04160    0.92016    1.00000    0.00000
  3758.50000    6.11828    0.00000    0.00000 -190.23888    0.00000 -190.23888   -9.92908   -8.10176  303.20549  109.04025    0.93608    1.00000    0.00000
  3759.00000    6.12229    0.00000    0.00000 -190.23888    0.00000 -190.23888   -7.53677   -8.10176  303.23132  109.04260    0.95199    1.00000    0.00000
  3759.50000    6.12471    0.00000    0.00000 -190.23886    0.00000 -190.23886   -6.88813   -8.10175  303.25935  109.04313    0.96790    1.00000    0.00000
  3760.00000    6.12440    0.00000    0.00000 -190.23884    0.00000 -190.23884   -8.78678   -8.10175  303.27365  109.04516    0.98382    1.00000    0.00000
  3760.50000    6.13415    0.00000    0.00000 -190.23882    0.00000 -190.23882  -10.01301   -8.10175  303.28255  109.04608    0.99327    1.00000    0.00000
  3761.00000    6.12938    0.00000    0.00000 -190.23880    0.00000 -190.23880   -9.86531   -8.10175  303.30130  109.04584    0.99409    1.00000    0.00000
  3761.50000    6.13741    0.00000    0.00000 -190.23878    0.00000 -190.23878   -7.82409   -8.10175  303.31745  109.04596    0.99490    1.00000    0.00000
  3762.00000    6.13741    0.00000    0.00000 -190.23877    0.00000 -190.23877   -7.41385   -8.10174  303.33652  109.04771    0.99572    1.00000    0.00000
  3762.50000    6.13040    0.00000    0.00000 -190.23875    0.00000 -190.23875   -9.03430   -8.10174  303.35718  109.04748    0.99653    1.00000    0.00000
  3763.00000    6.13741    0.00000    0.00000 -190.23873    0.00000 -190.23873   -8.63669   -8.10174  303.37799  109.04888    0.99716    1.00000    0.00000
  3763.50000    6.13377    0.00000    0.00000 -190.23871    0.00000 -190.23871   -6.99493   -8.10174  303.38275  109.05019    0.99749    1.00000    0.00000
  3764.00000    6.14106    0.00000    0.00000 -190.23869    0.00000 -190.23869   -6.29452   -8.10174  303.38347  109.05115    0.99783    1.00000    0.00000
  3764.50000    6.15631    0.00000    0.00000 -190.23867    0.00000 -190.23867   -6.92620   -8.10174  303.40348  109.05327    0.99817    1.00000    0.00000
  3765.00000    6.14058    0.00000    0.00000 -190.23865    0.00000 -190.23865   -7.89398   -8.10173  303.43451  109.05453    0.99850    1.00000    0.00000
  3765.50000    6.06748    0.00000    0.00000 -190.23864    0.00000 -190.23864   -7.66590   -8.10173  303.46178  109.05490    0.99873    1.00000    0.00000
