~VERSION INFORMATION
VERS.           2.0  :CWLS LOG ASCII STANDARD - 2.0
WRAP.           NO   :One line per depth step
~WELL INFORMATION
STRT.m                          3480.00000: START DEPTH
STOP.m                          3910.00000: STOP DEPTH
STEP.m                             0.50000: STEP
NULL.                           -999.25000: NULL VALUE
COMP.                              Statoil: COMPANY
WELL.                           15/9 F-1 C: WELL
FLD .                                Volve: FIELD
LOC .                                     : LOCATION
PROV.                                     : PROVINCE
UWI .                                     : UNIQUE WELL ID
SRVC.                         Schlumberger: SERVICE COMPANY
DATE.                           05-04-2018: DATE
~CURVE INFORMATION
#MNEM.UNIT                                   Curve Description
#------------                              ----------------------
DEPT.m                                    : curve   1    Depth
C1C2.in                                   : curve   2    Caliper C1C2
QOZI.m3/D                                 : curve   3    Oil rate
QOZT.m3/D                                 : curve   4    Oil rate
QTZT.m3/D                                 : curve   5    Mixture rate
QWZI.m3/D                                 : curve   6    Water rate
QWZT.m3/D                                 : curve   7    Water rate
VASPIN.M/MN                               : curve   8    Apparent velocity
VASPINZ.M/MN                              : curve   9    Apparent velocity
WPRE.bara                                 : curve  10    Pressure
WTEP.°C                                   : curve  11    Temperature
YW_FLV.                                   : curve  12    Water holdup
YW_FLVZ.                                  : curve  13    Water holdup
INFL_Z.                                   : curve  14    Other
~PARAMETER INFORMATION
~OTHER INFORMATION
~ASCII LOG DATA
# ...
  3636.00000    6.12818    0.00000    0.00000 -206.80807    0.00000 -206.80807   -7.21885   -8.79392  298.55900  108.89518    1.00000    1.00000    0.00000
  3636.50000    6.13104    0.00000    0.00000 -206.80800    0.00000 -206.80800   -6.38502   -8.79392  298.58384  108.89417    1.00000    1.00000    0.00000
  3637.00000    6.11666    0.00000    0.00000 -206.80793    0.00000 -206.80793   -6.19571   -8.79391  298.59554  108.89331    0.99990    1.00000    0.00000
  3637.50000    6.12235    0.00000    0.00000 -206.80786    0.00000 -206.80786   -6.12439   -8.79391  298.60049  108.89625    0.99669    1.00000    0.00000
  3638.00000    6.11941    0.00000    0.00000 -206.80780    0.00000 -206.80780   -7.12052   -8.79391  298.62142  108.89754    0.99300    1.00000    0.00000
  3638.50000    6.11832    0.00000    0.00000 -206.80773    0.00000 -206.80773   -8.13542   -8.79390  298.64826  108.89594    0.98931    1.00000    0.00000
  3639.00000    6.11248    0.00000    0.00000 -206.80766    0.00000 -206.80766   -7.02586   -8.79390  298.68018  108.89625    0.98561    1.00000    0.00000
  3639.50000    6.11001    0.00000    0.00000 -206.80759    0.00000 -206.80759   -5.97541   -8.79390  298.67949  108.89809    0.98206    1.00000    0.00000
  3640.00000    6.10291    0.00000    0.00000 -206.80752   -8.27873 -206.80752   -6.93199   -8.79389  298.69097  108.89871    0.98445    1.00000    1.00000
  3640.50000    6.10291    0.00000    0.00000 -206.34750  -16.55745 -206.34750   -9.74767   -8.77468  298.72440  108.89861    0.98794    1.00000    1.00000
  3641.00000    6.10291    0.00000    0.00000 -205.88747  -16.55745 -205.88747  -11.23881   -8.75547  298.74646  108.89950    0.99143    1.00000    1.00000
  3641.50000    6.10291    0.00000    0.00000 -205.42745  -16.55745 -205.42745   -9.50107   -8.73626  298.76122  108.89979    0.99492    1.00000    1.00000
  3642.00000    6.12611    0.00000    0.00000 -204.96742  -16.55745 -204.96742   -6.76526   -8.71705  298.77196  108.90116    0.99842    1.00000    1.00000
  3642.50000    6.13136    0.00000    0.00000 -204.50740  -16.55745 -204.50740   -7.28232   -8.69784  298.80446  108.90166    0.99916    1.00000    1.00000
  3643.00000    6.12260    0.00000    0.00000 -204.04737  -16.55745 -204.04737   -9.66475   -8.67863  298.83284  108.90132    0.99936    1.00000    1.00000
  3643.50000    6.12885    0.00000    0.00000 -203.58735  -16.55745 -203.58735   -9.82206   -8.65942  298.84058  108.90166    0.99956    1.00000    1.00000
  3644.00000    6.12232    0.00000    0.00000 -203.12732  -16.55745 -203.12732   -9.07148   -8.64020  298.85581  108.90148    0.99976    1.00000    1.00000
  3644.50000    6.11668    0.00000    0.00000 -202.66730  -16.55745 -202.66730   -8.66451   -8.62099  298.87628  108.90157    0.99996    1.00000    1.00000
  3645.00000    6.12725    0.00000    0.00000 -202.20727  -16.55745 -202.20727   -7.41872   -8.60178  298.90127  108.90220    1.00000    1.00000    1.00000
  3645.50000    6.14266    0.00000    0.00000 -201.74725  -16.55745 -201.74725   -9.06330   -8.58257  298.92505  108.90293    1.00000    1.00000    1.00000
  3646.00000    6.16605    0.00000    0.00000 -201.28722  -16.55745 -201.28722  -11.22606   -8.56336  298.93505  108.90187    1.00000    1.00000    1.00000
  3646.50000    6.15205    0.00000    0.00000 -200.82720  -16.55745 -200.82720  -10.09092   -8.54415  298.94756  108.90211    1.00000    1.00000    1.00000
  3647.00000    6.14809    0.00000    0.00000 -200.36717  -16.55745 -200.36717   -8.87634   -8.52494  298.95311  108.90302    0.99999    1.00000    1.00000
  3647.50000    6.14737    0.00000    0.00000 -199.90715  -16.55745 -199.90715   -7.52302   -8.50573  298.97961  108.90328    0.99879    1.00000    1.00000
  3648.00000    6.16427    0.00000    0.00000 -199.44712  -16.55745 -199.44712   -7.83577   -8.48652  299.02696  108.90361    0.99723    1.00000    1.00000
  3648.50000    6.15958    0.00000    0.00000 -198.98710  -16.55745 -198.98710   -8.53564   -8.46731  299.04283  108.90446    0.99568    1.00000    1.00000
  3649.00000    6.15226    0.00000    0.00000 -198.52707  -16.55745 -198.52707   -7.81885   -8.44809  299.04033  108.90420    0.99412    1.00000    1.00000
  3649.50000    6.15226    0.00000    0.00000 -198.06705  -16.55745 -198.06705   -7.96617   -8.42888  299.04171  108.90411    0.99256    1.00000    1.00000
  3650.00000    6.15280    0.00000    0.00000 -197.60702  -16.55745 -197.60702   -7.21255   -8.40967  299.07399  108.90409    0.99333    1.00000    1.00000
  3650.50000    6.13586    0.00000    0.00000 -197.14700  -16.55745 -197.14700   -6.42257   -8.39046  299.12046  108.90492    0.99489    1.00000    1.00000
  3651.00000    6.13586    0.00000    0.00000 -196.68697  -16.55745 -196.68697   -6.13464   -8.37125  299.12924  108.90654    0.99644    1.00000    1.00000
  3651.50000    6.13586    0.00000    0.00000 -196.22695  -16.55745 -196.22695   -6.66190   -8.35204  299.14475  108.90636    0.99800    1.00000    1.00000
  3652.00000    6.13744    0.00000    0.00000 -195.76692  -16.55745 -195.76692   -7.75838   -8.33283  299.16191  108.90628    0.99956    1.00000    1.00000
  3652.50000    6.13764    0.00000    0.00000 -195.30690  -16.55745 -195.30690   -9.02943   -8.31362  299.18180  108.90841    0.99998    1.00000    1.00000
  3653.00000    6.13586    0.00000    0.00000 -194.84687  -16.55745 -194.84687   -9.40626   -8.29441  299.21088  108.90486    0.99996    1.00000    1.00000
  3653.50000    6.13586    0.00000    0.00000 -194.38685  -16.55745 -194.38685   -8.47081   -8.27520  299.22575  108.90564    0.99993    1.00000    1.00000
  3654.00000    6.13586    0.00000    0.00000 -193.92682  -16.55745 -193.92682   -7.11690   -8.25598  299.25595  108.90678    0.99991    1.00000    1.00000
  3654.50000    6.14891    0.00000    0.00000 -193.46680  -16.55745 -193.46680   -8.46159   -8.23677  299.27750  108.90865    0.99989    1.00000    1.00000
  3655.00000    6.14583    0.00000    0.00000 -193.00677  -16.55745 -193.00677  -10.50612   -8.21756  299.28168  108.90767    0.99990    1.00000    1.00000
  3655.50000    6.15828    0.00000    0.00000 -192.54675  -16.55745 -192.54675  -11.61011   -8.19835  299.29971  108.90866    0.99992    1.00000    1.00000
  3656.00000    6.14760    0.00000    0.00000 -192.08672  -16.55745 -192.08672   -9.70761   -8.17914  299.32027  108.90874    0.99994    1.00000    1.00000
  3656.50000    6.12035    0.00000    0.00000 -191.62670  -16.55745 -191.62670   -5.31696   -8.15993  299.35368  108.90948    0.99997    1.00000    1.00000
  3657.00000    6.13364    0.00000    0.00000 -191.16667  -16.55745 -191.16667   -6.20439   -8.14072  299.38354  108.90935    0.99999    1.00000    1.00000
  3657.50000    6.13672    0.00000    0.00000 -190.70665  -16.55745 -190.70665   -9.56124   -8.12151  299.38936  108.90910    1.00000    1.00000    1.00000
  3658.00000    6.16271    0.00000    0.00000 -190.24662   -8.27873 -190.24662  -10.53480   -8.10230  299.40908  108.90886    1.00000    1.00000    1.00000
  3658.50000    6.17588    0.00000    0.00000 -190.24656    0.00000 -190.24656   -8.61468   -8.10229  299.42184  108.90898    1.00000    1.00000    0.00000
  3659.00000    6.16547    0.00000    0.00000 -190.24650    0.00000 -190.24650   -4.74636   -8.10229  299.43373  108.91168    1.00000    1.00000    0.00000
  3659.50000    6.17552    0.00000    0.00000 -190.24644    0.00000 -190.24644   -4.20036   -8.10229  299.46955  108.91221    1.00000    1.00000    0.00000
  3660.00000    6.18025    0.00000    0.00000 -190.24637    0.00000 -190.24637   -6.94026   -8.10228  299.48645  108.91180    1.00000    1.00000    0.00000
  3660.50000    6.13293    0.00000    0.00000 -190.24631    0.00000 -190.24631   -6.46938   -8.10228  299.50282  108.91143    1.00000    1.00000    0.00000
  3661.00000    6.16992    0.00000    0.00000 -190.24625    0.00000 -190.24625   -5.96174   -8.10228  299.51763  108.91482    1.00000    1.00000    0.00000
  3661.50000    6.16700    0.00000    0.00000 -190.24619    0.00000 -190.24619   -6.79408   -8.10227  299.53925  108.91319    1.00000    1.00000    0.00000
