~VERSION INFORMATION
VERS.           2.0  :CWLS LOG ASCII STANDARD - 2.0
WRAP.           NO   :One line per depth step
~WELL INFORMATION
STRT.m                          3480.00000: START DEPTH
STOP.m                          3910.00000: STOP DEPTH
STEP.m                             0.50000: STEP
NULL.                           -999.25000: NULL VALUE
COMP.                              Statoil: COMPANY
WELL.                           15/9 F-1 C: WELL
FLD .                                Volve: FIELD
LOC .                                     : LOCATION
PROV.                                     : PROVINCE
UWI .                                     : UNIQUE WELL ID
SRVC.                         Schlumberger: SERVICE COMPANY
DATE.                           05-04-2018: DATE
~CURVE INFORMATION
#MNEM.UNIT                                   Curve Description
#------------                              ----------------------
DEPT.m                                    : curve   1    Depth
C1C2.in                                   : curve   2    Caliper C1C2
QOZI.m3/D                                 : curve   3    Oil rate
QOZT.m3/D                                 : curve   4    Oil rate
QTZT.m3/D                                 : curve   5    Mixture rate
QWZI.m3/D                                 : curve   6    Water rate
QWZT.m3/D                                 : curve   7    Water rate
VASPIN.M/MN                               : curve   8    Apparent velocity
VASPINZ.M/MN                              : curve   9    Apparent velocity
WPRE.bara                                 : curve  10    Pressure
WTEP.°C                                   : curve  11    Temperature
YW_FLV.                                   : curve  12    Water holdup
YW_FLVZ.                                  : curve  13    Water holdup
INFL_Z.                                   : curve  14    Other
~PARAMETER INFORMATION
~OTHER INFORMATION
~ASCII LOG DATA
# ...
  3818.00000    6.14266    0.00000    0.00000 -121.60101  -15.69500 -121.60101   -4.39996   -5.22267  305.14508  109.16378    0.98078    1.00000    1.00000
  3818.50000    6.13036    0.00000    0.00000 -121.16504  -15.69500 -121.16504   -4.37971   -5.20429  305.17080  109.16370    0.98270    1.00000    1.00000
  3819.00000    6.12700    0.00000    0.00000 -120.72908  -15.69500 -120.72908   -4.75570   -5.18590  305.19949  109.16420    0.98673    1.00000    1.00000
  3819.50000    6.12151    0.00000    0.00000 -120.29312  -15.69500 -120.29312   -3.10125   -5.16752  305.24063  109.16854    0.99076    1.00000    1.00000
  3820.00000    6.12801    0.00000    0.00000 -119.85716  -15.69500 -119.85716   -1.10048   -5.14913  305.24480  109.17040    0.99479    1.00000    1.00000
  3820.50000    6.12736    0.00000    0.00000 -119.42119  -15.69500 -119.42119   -1.25800   -5.13075  305.24901  109.17118    0.99882    1.00000    1.00000
  3821.00000    6.10884    0.00000    0.00000 -118.98523  -15.69500 -118.98523   -3.92321   -5.11236  305.25134  109.17339    0.98454    1.00000    1.00000
  3821.50000    6.11358    0.00000    0.00000 -118.54927  -15.69500 -118.54927   -9.66670   -5.09398  305.27309  109.17014    0.96272    1.00000    1.00000
  3822.00000    6.14048    0.00000    0.00000 -118.11331  -15.69500 -118.11331   -9.47881   -5.07559  305.30890  109.17370    0.94090    1.00000    1.00000
  3822.50000    6.17730    0.00000    0.00000 -117.67734  -15.69500 -117.67734   -4.87843   -5.05721  305.32190  109.17455    0.91908    1.00000    1.00000
  3823.00000    6.15631    0.00000    0.00000 -117.24138  -15.69500 -117.24138    1.78834   -5.03882  305.35107  109.17589    0.89726    1.00000    1.00000
  3823.50000    6.15356    0.00000    0.00000 -116.80542  -15.69500 -116.80542   -0.71788   -5.02044  305.35879  109.17573    0.90044    1.00000    1.00000
  3824.00000    6.15764    0.00000    0.00000 -116.36946  -15.69500 -116.36946   -7.14855   -5.00205  305.36444  109.17668    0.91547    1.00000    1.00000
  3824.50000    6.16747    0.00000    0.00000 -115.93349  -15.69500 -115.93349   -7.40281   -4.98367  305.36184  109.17848    0.93050    1.00000    1.00000
  3825.00000    6.16386    0.00000    0.00000 -115.49753  -15.69500 -115.49753   -4.57343   -4.96528  305.38772  109.17792    0.94554    1.00000    1.00000
  3825.50000    6.17165    0.00000    0.00000 -115.06157  -15.69500 -115.06157   -2.86649   -4.94690  305.43813  109.17905    0.96057    1.00000    1.00000
  3826.00000    6.16790    0.00000    0.00000 -114.62561  -15.69500 -114.62561   -4.66618   -4.92851  305.45834  109.17869    0.97017    1.00000    1.00000
  3826.50000    6.14985    0.00000    0.00000 -114.18964  -15.69500 -114.18964   -5.02008   -4.91013  305.44544  109.18151    0.97683    1.00000    1.00000
  3827.00000    6.15078    0.00000    0.00000 -113.75368  -15.69500 -113.75368   -4.61372   -4.89174  305.43730  109.18145    0.98348    1.00000    1.00000
  3827.50000    6.14182    0.00000    0.00000 -113.31772  -15.69500 -113.31772   -2.43501   -4.87336  305.46006  109.18451    0.99014    1.00000    1.00000
  3828.00000    6.16439    0.00000    0.00000 -112.88176  -15.69500 -112.88176   -5.22912   -4.85497  305.50197  109.18374    0.99680    1.00000    1.00000
  3828.50000    6.16517    0.00000    0.00000 -112.44579  -15.69500 -112.44579   -7.04188   -4.83659  305.53575  109.18419    0.99481    1.00000    1.00000
  3829.00000    6.16877    0.00000    0.00000 -112.00983  -15.69500 -112.00983   -6.06275   -4.81820  305.54936  109.18557    0.98749    1.00000    1.00000
  3829.50000    6.16893    0.00000    0.00000 -111.57387  -15.69500 -111.57387   -1.99485   -4.79982  305.53496  109.18572    0.98016    1.00000    1.00000
  3830.00000    6.16862    0.00000    0.00000 -111.13791  -15.69500 -111.13791   -1.24956   -4.78143  305.53315  109.18728    0.97284    1.00000    1.00000
  3830.50000    6.17023    0.00000    0.00000 -110.70194  -15.69500 -110.70194   -6.57928   -4.76305  305.56792  109.18966    0.96552    1.00000    1.00000
  3831.00000    6.14585    0.00000    0.00000 -110.26598  -15.69500 -110.26598   -6.66598   -4.74466  305.60241  109.19175    0.96490    1.00000    1.00000
  3831.50000    6.13898    0.00000    0.00000 -109.83002  -15.69500 -109.83002   -3.08459   -4.72628  305.63320  109.19245    0.96895    1.00000    1.00000
  3832.00000    6.13048    0.00000    0.00000 -109.39406  -15.69500 -109.39406    1.91229   -4.70789  305.62673  109.19272    0.97301    1.00000    1.00000
  3832.50000    6.12658    0.00000    0.00000 -108.95809  -15.69500 -108.95809   -3.45108   -4.68951  305.63510  109.19224    0.97707    1.00000    1.00000
  3833.00000    6.12321    0.00000    0.00000 -108.52213  -15.69500 -108.52213  -10.37472   -4.67112  305.65509  109.19483    0.98112    1.00000    1.00000
  3833.50000    6.12352    0.00000    0.00000 -108.08617  -15.69500 -108.08617   -9.83577   -4.65274  305.66491  109.19414    0.98311    1.00000    1.00000
  3834.00000    6.14182    0.00000    0.00000 -107.65021  -15.69500 -107.65021   -5.09206   -4.63435  305.68730  109.19708    0.98347    1.00000    1.00000
  3834.50000    6.16467    0.00000    0.00000 -107.21424  -15.69500 -107.21424    4.04660   -4.61597  305.71718  109.19561    0.98383    1.00000    1.00000
  3835.00000    6.18424    0.00000    0.00000 -106.77828   -7.84750 -106.77828   -1.15676   -4.59758  305.74777  109.19622    0.98419    1.00000    1.00000
  3835.50000    6.14688    0.00000    0.00000 -106.77832    0.00000 -106.77832   -9.63426   -4.59758  305.73785  109.19685    0.98454    1.00000    0.00000
  3836.00000    6.02589    0.00000    0.00000 -106.77836    0.00000 -106.77836  -10.30872   -4.59758  305.72288  109.19897    0.98569    1.00000    0.00000
  3836.50000    6.09609    0.00000    0.00000 -106.77840    0.00000 -106.77840   -6.81448   -4.59758  305.76740  109.19720    0.98753    1.00000    0.00000
  3837.00000    6.13282    0.00000    0.00000 -106.77844    0.00000 -106.77844   -0.29531   -4.59758  305.79623  109.20000    0.98937    1.00000    0.00000
  3837.50000    6.13095    0.00000    0.00000 -106.77848    0.00000 -106.77848   -2.55468   -4.59759  305.81282  109.20168    0.99121    1.00000    0.00000
  3838.00000    6.12284    0.00000    0.00000 -106.77852    0.00000 -106.77852   -3.95016   -4.59759  305.83037  109.20315    0.99305    1.00000    0.00000
  3838.50000    6.10481    0.00000    0.00000 -106.77856    0.00000 -106.77856   -3.98013   -4.59759  305.83527  109.20378    0.99398    1.00000    0.00000
  3839.00000    6.10714    0.00000    0.00000 -106.77860    0.00000 -106.77860   -4.77075   -4.59759  305.84414  109.20618    0.99399    1.00000    0.00000
  3839.50000    6.11613    0.00000    0.00000 -106.77864    0.00000 -106.77864   -5.22334   -4.59759  305.84846  109.20724    0.99400    1.00000    0.00000
  3840.00000    6.12579    0.00000    0.00000 -106.77868    0.00000 -106.77868   -6.26187   -4.59759  305.88852  109.20761    0.99401    1.00000    0.00000
  3840.50000    6.13110    0.00000    0.00000 -106.77872    0.00000 -106.77872   -5.82848   -4.59759  305.92412  109.20966    0.99401    1.00000    0.00000
  3841.00000    6.10944    0.00000    0.00000 -106.77876    0.00000 -106.77876    0.30942   -4.59759  305.93320  109.21054    0.99457    1.00000    0.00000
  3841.50000    6.10387    0.00000    0.00000 -106.77880    0.00000 -106.77880    2.47065   -4.59759  305.93589  109.21180    0.99575    1.00000    0.00000
  3842.00000    6.08931    0.00000    0.00000 -106.77883    0.00000 -106.77883   -6.13041   -4.59759  305.92471  109.21412    0.99692    1.00000    0.00000
  3842.50000    6.09245    0.00000    0.00000 -106.77887    0.00000 -106.77887  -10.49316   -4.59759  305.95925  109.21519    0.99810    1.00000    0.00000
  3843.00000    6.09068    0.00000    0.00000 -106.77891    0.00000 -106.77891   -8.82413   -4.59759  305.98995  109.21639    0.99927    1.00000    0.00000
  3843.50000    6.10047    0.00000    0.00000 -106.77894    0.00000 -106.77894   -1.32552   -4.59759  306.00644  109.21916    0.99991    1.00000    0.00000
