~VERSION INFORMATION
VERS.           2.0  :CWLS LOG ASCII STANDARD - 2.0
WRAP.           NO   :One line per depth step
~WELL INFORMATION
STRT.m                          3480.00000: START DEPTH
STOP.m                          3910.00000: STOP DEPTH
STEP.m                             0.50000: STEP
NULL.                           -999.25000: NULL VALUE
COMP.                              Statoil: COMPANY
WELL.                           15/9 F-1 C: WELL
FLD .                                Volve: FIELD
LOC .                                     : LOCATION
PROV.                                     : PROVINCE
UWI .                                     : UNIQUE WELL ID
SRVC.                         Schlumberger: SERVICE COMPANY
DATE.                           05-04-2018: DATE
~CURVE INFORMATION
#MNEM.UNIT                                   Curve Description
#------------                              ----------------------
DEPT.m                                    : curve   1    Depth
C1C2.in                                   : curve   2    Caliper C1C2
QOZI.m3/D                                 : curve   3    Oil rate
QOZT.m3/D                                 : curve   4    Oil rate
QTZT.m3/D                                 : curve   5    Mixture rate
QWZI.m3/D                                 : curve   6    Water rate
QWZT.m3/D                                 : curve   7    Water rate
VASPIN.M/MN                               : curve   8    Apparent velocity
VASPINZ.M/MN                              : curve   9    Apparent velocity
WPRE.bara                                 : curve  10    Pressure
WTEP.°C                                   : curve  11    Temperature
YW_FLV.                                   : curve  12    Water holdup
YW_FLVZ.                                  : curve  13    Water holdup
INFL_Z.                                   : curve  14    Other
~PARAMETER INFORMATION
~OTHER INFORMATION
~ASCII LOG DATA
# ...
  3766.00000    6.15126    0.00000    0.00000 -190.23862    0.00000 -190.23862   -5.67225   -8.10173  303.47016  109.05543    0.99876    1.00000    0.00000
  3766.50000    6.13741    0.00000    0.00000 -190.23860    0.00000 -190.23860   -4.91498   -8.10173  303.46837  109.05442    0.99879    1.00000    0.00000
  3767.00000    6.13787    0.00000    0.00000 -190.23858    0.00000 -190.23858   -6.39938   -8.10173  303.47863  109.05395    0.99883    1.00000    0.00000
  3767.50000    6.12967    0.00000    0.00000 -190.23856    0.00000 -190.23856   -8.44762   -8.10172  303.49999  109.05633    0.99886    1.00000    0.00000
  3768.00000    6.12440    0.00000    0.00000 -190.23854    0.00000 -190.23854   -8.70768   -8.10172  303.52618  109.05594    0.99895    1.00000    0.00000
  3768.50000    6.12113    0.00000    0.00000 -189.55635  -67.76789 -189.55635   -8.63533   -8.07311  303.54962  109.05655    0.99914    1.00000    1.00000
  3769.00000    6.12113    0.00000    0.00000 -188.61150  -67.76789 -188.61150   -8.01334   -8.03348  303.56772  109.05686    0.99934    1.00000    1.00000
  3769.50000    6.12440    0.00000    0.00000 -187.66665  -67.76789 -187.66665   -7.82306   -7.99385  303.58242  109.05644    0.99953    1.00000    1.00000
  3770.00000    6.12287    0.00000    0.00000 -186.72179  -67.76789 -186.72179   -8.43803   -7.95422  303.58835  109.05888    0.99973    1.00000    1.00000
  3770.50000    6.12113    0.00000    0.00000 -185.77694  -67.76789 -185.77694   -8.20642   -7.91459  303.59528  109.05877    0.99975    1.00000    1.00000
  3771.00000    6.12113    0.00000    0.00000 -184.83209  -67.76789 -184.83209   -7.47351   -7.87496  303.61662  109.06028    0.99938    1.00000    1.00000
  3771.50000    6.11492    0.00000    0.00000 -183.88724  -67.76789 -183.88724   -7.46271   -7.83533  303.64909  109.06048    0.99902    1.00000    1.00000
  3772.00000    6.10865    0.00000    0.00000 -182.94238  -67.76789 -182.94238   -9.01325   -7.79570  303.67288  109.05998    0.99865    1.00000    1.00000
  3772.50000    6.10551    0.00000    0.00000 -181.99753  -67.76789 -181.99753  -10.52229   -7.75608  303.68283  109.06179    0.99828    1.00000    1.00000
  3773.00000    6.10109    0.00000    0.00000 -181.05268  -67.76789 -181.05268  -10.86517   -7.71645  303.68639  109.06490    0.99755    1.00000    1.00000
  3773.50000    6.10062    0.00000    0.00000 -180.10782  -67.76789 -180.10782   -6.66985   -7.67682  303.69859  109.06364    0.99586    1.00000    1.00000
  3774.00000    6.09789    0.00000    0.00000 -179.16297  -67.76789 -179.16297   -3.03431   -7.63719  303.72274  109.06370    0.99416    1.00000    1.00000
  3774.50000    6.11178    0.00000    0.00000 -178.21812  -67.76789 -178.21812   -5.95526   -7.59756  303.74526  109.06412    0.99247    1.00000    1.00000
  3775.00000    6.12543    0.00000    0.00000 -177.27327  -67.76789 -177.27327   -8.99457   -7.55793  303.76574  109.06480    0.99078    1.00000    1.00000
  3775.50000    6.15304    0.00000    0.00000 -176.32841  -67.76789 -176.32841   -8.76708   -7.51830  303.77349  109.06593    0.98784    1.00000    1.00000
  3776.00000    6.16021    0.00000    0.00000 -175.38356  -67.76789 -175.38356   -7.33161   -7.47867  303.77362  109.06588    0.98115    1.00000    1.00000
  3776.50000    6.13876    0.00000    0.00000 -174.43871  -67.76789 -174.43871   -4.45715   -7.43904  303.79837  109.06884    0.97446    1.00000    1.00000
  3777.00000    6.15304    0.00000    0.00000 -173.49385  -67.76789 -173.49385   -3.20564   -7.39941  303.82737  109.06628    0.96777    1.00000    1.00000
  3777.50000    6.11710    0.00000    0.00000 -172.54900  -67.76789 -172.54900   -4.35144   -7.35978  303.83912  109.06790    0.96107    1.00000    1.00000
  3778.00000    6.12103    0.00000    0.00000 -171.60415  -67.76789 -171.60415   -4.72816   -7.32015  303.84529  109.06894    0.95694    1.00000    1.00000
  3778.50000    6.10252    0.00000    0.00000 -170.65930  -67.76789 -170.65930   -4.84455   -7.28052  303.85797  109.06943    0.96174    1.00000    1.00000
  3779.00000    6.10551    0.00000    0.00000 -169.71444  -67.76789 -169.71444   -5.04278   -7.24090  303.88597  109.07139    0.96658    1.00000    1.00000
  3779.50000    6.11682    0.00000    0.00000 -168.76959  -67.76789 -168.76959   -5.70155   -7.20127  303.89442  109.07254    0.97143    1.00000    1.00000
  3780.00000    6.11095    0.00000    0.00000 -167.82474  -67.76789 -167.82474   -5.96774   -7.16164  303.90741  109.07221    0.97627    1.00000    1.00000
  3780.50000    6.11102    0.00000    0.00000 -166.87989  -67.76789 -166.87989   -5.14027   -7.12201  303.93724  109.07415    0.97978    1.00000    1.00000
  3781.00000    6.10551    0.00000    0.00000 -165.93503  -67.76789 -165.93503   -5.70578   -7.08238  303.96282  109.07530    0.97756    1.00000    1.00000
  3781.50000    6.10551    0.00000    0.00000 -164.99018  -67.76789 -164.99018   -7.88902   -7.04275  303.97529  109.07642    0.97533    1.00000    1.00000
  3782.00000    6.10637    0.00000    0.00000 -164.04533  -67.76789 -164.04533   -7.59597   -7.00312  303.96552  109.07797    0.97310    1.00000    1.00000
  3782.50000    6.10725    0.00000    0.00000 -163.10047  -67.76789 -163.10047   -4.97636   -6.96349  303.98404  109.07750    0.97087    1.00000    1.00000
  3783.00000    6.10551    0.00000    0.00000 -162.15562  -67.76789 -162.15562   -3.66125   -6.92386  304.01921  109.07931    0.96997    1.00000    1.00000
  3783.50000    6.10513    0.00000    0.00000 -161.21077  -67.76789 -161.21077   -5.46229   -6.88423  304.05049  109.08239    0.97613    1.00000    1.00000
  3784.00000    6.10740    0.00000    0.00000 -160.26592  -67.76789 -160.26592   -8.81846   -6.84460  304.05688  109.08271    0.98230    1.00000    1.00000
  3784.50000    6.10976    0.00000    0.00000 -159.32106  -67.76789 -159.32106   -8.84839   -6.80497  304.05850  109.08288    0.98846    1.00000    1.00000
  3785.00000    6.13672    0.00000    0.00000 -158.37621  -67.76789 -158.37621   -5.81960   -6.76534  304.08146  109.08518    0.99462    1.00000    1.00000
  3785.50000    6.13672    0.00000    0.00000 -157.43136  -67.76789 -157.43136   -3.77925   -6.72571  304.09895  109.08424    0.99751    1.00000    1.00000
  3786.00000    6.13374    0.00000    0.00000 -156.48650  -67.76789 -156.48650   -4.13254   -6.68609  304.11694  109.08617    0.97961    1.00000    1.00000
  3786.50000    6.13672    0.00000    0.00000 -155.54165  -67.76789 -155.54165   -6.28529   -6.64646  304.14341  109.08664    0.96153    1.00000    1.00000
  3787.00000    6.16327    0.00000    0.00000 -154.59680  -67.76789 -154.59680   -6.97326   -6.60683  304.16119  109.08835    0.94345    1.00000    1.00000
  3787.50000    6.13790    0.00000    0.00000 -153.65195  -67.76789 -153.65195   -5.54949   -6.56720  304.16792  109.09080    0.92537    1.00000    1.00000
  3788.00000    6.11924    0.00000    0.00000 -152.70709  -67.76789 -152.70709   -4.72120   -6.52757  304.16861  109.09188    0.91211    1.00000    1.00000
  3788.50000    6.10888    0.00000    0.00000 -151.76224  -67.76789 -151.76224   -4.61165   -6.48794  304.19787  109.09098    0.92891    1.00000    1.00000
  3789.00000    6.10867    0.00000    0.00000 -150.81739  -67.76789 -150.81739   -3.84714   -6.44831  304.21896  109.09216    0.94699    1.00000    1.00000
  3789.50000    6.14209    0.00000    0.00000 -149.87254  -67.76789 -149.87254   -1.78032   -6.40868  304.22496  109.09401    0.96507    1.00000    1.00000
  3790.00000    6.16862    0.00000    0.00000 -148.92768  -67.76789 -148.92768   -1.69807   -6.36905  304.24198  109.09525    0.98315    1.00000    1.00000
  3790.50000    6.14373    0.00000    0.00000 -147.98283  -67.76789 -147.98283   -4.83849   -6.32942  304.25916  109.09707    0.99915    1.00000    1.00000
  3791.00000    6.13672    0.00000    0.00000 -147.03798  -67.76789 -147.03798   -6.47314   -6.28979  304.28620  109.09948    0.99284    1.00000    1.00000
  3791.50000    6.13672    0.00000    0.00000 -146.09312  -67.76789 -146.09312   -4.31690   -6.25016  304.28550  109.10133    0.98613    1.00000    1.00000
