~VERSION INFORMATION
VERS.           2.0  :CWLS LOG ASCII STANDARD - 2.0
WRAP.           NO   :One line per depth step
~WELL INFORMATION
STRT.m                          3480.00000: START DEPTH
STOP.m                          3910.00000: STOP DEPTH
STEP.m                             0.50000: STEP
NULL.                           -999.25000: NULL VALUE
COMP.                              Statoil: COMPANY
WELL.                           15/9 F-1 C: WELL
FLD .                                Volve: FIELD
LOC .                                     : LOCATION
PROV.                                     : PROVINCE
UWI .                                     : UNIQUE WELL ID
SRVC.                         Schlumberger: SERVICE COMPANY
DATE.                           05-04-2018: DATE
~CURVE INFORMATION
#MNEM.UNIT                                   Curve Description
#------------                              ----------------------
DEPT.m                                    : curve   1    Depth
C1C2.in                                   : curve   2    Caliper C1C2
QOZI.m3/D                                 : curve   3    Oil rate
QOZT.m3/D                                 : curve   4    Oil rate
QTZT.m3/D                                 : curve   5    Mixture rate
QWZI.m3/D                                 : curve   6    Water rate
QWZT.m3/D                                 : curve   7    Water rate
VASPIN.M/MN                               : curve   8    Apparent velocity
VASPINZ.M/MN                              : curve   9    Apparent velocity
WPRE.bara                                 : curve  10    Pressure
WTEP.°C                                   : curve  11    Temperature
YW_FLV.                                   : curve  12    Water holdup
YW_FLVZ.                                  : curve  13    Water holdup
INFL_Z.                                   : curve  14    Other
~PARAMETER INFORMATION
~OTHER INFORMATION
~ASCII LOG DATA
# ...
  3792.00000    6.13744    0.00000    0.00000 -145.14827  -67.76789 -145.14827   -3.25616   -6.21053  304.30673  109.10204    0.97942    1.00000    1.00000
  3792.50000    6.13672    0.00000    0.00000 -144.20342  -67.76789 -144.20342   -5.65448   -6.17091  304.33794  109.10508    0.97271    1.00000    1.00000
  3793.00000    6.13118    0.00000    0.00000 -143.25857  -67.76789 -143.25857   -8.06251   -6.13128  304.35322  109.10407    0.96652    1.00000    1.00000
  3793.50000    6.13672    0.00000    0.00000 -142.31371  -67.76789 -142.31371   -8.47959   -6.09165  304.36801  109.10424    0.97070    1.00000    1.00000
  3794.00000    6.13655    0.00000    0.00000 -141.36886  -67.76789 -141.36886   -6.12834   -6.05202  304.36687  109.10645    0.97498    1.00000    1.00000
  3794.50000    6.12980    0.00000    0.00000 -140.42401  -67.76789 -140.42401   -3.97271   -6.01239  304.39297  109.10736    0.97926    1.00000    1.00000
  3795.00000    6.13176    0.00000    0.00000 -139.47915  -67.76789 -139.47915   -4.68418   -5.97276  304.42170  109.10833    0.98355    1.00000    1.00000
  3795.50000    6.10717    0.00000    0.00000 -138.53430  -67.76789 -138.53430   -5.82853   -5.93313  304.44348  109.11040    0.98755    1.00000    1.00000
  3796.00000    6.10764    0.00000    0.00000 -137.58945  -67.76789 -137.58945   -5.40227   -5.89350  304.44723  109.11041    0.98841    1.00000    1.00000
  3796.50000    6.11162    0.00000    0.00000 -136.64460  -67.76789 -136.64460   -4.45406   -5.85387  304.45028  109.11205    0.98903    1.00000    1.00000
  3797.00000    6.10495    0.00000    0.00000 -135.69974  -67.76789 -135.69974   -7.29492   -5.81424  304.48704  109.11153    0.98964    1.00000    1.00000
  3797.50000    6.10481    0.00000    0.00000 -134.75489  -67.76789 -134.75489   -7.95801   -5.77461  304.50927  109.11369    0.99026    1.00000    1.00000
  3798.00000    6.10401    0.00000    0.00000 -133.81004  -67.76789 -133.81004   -7.07586   -5.73498  304.51694  109.11403    0.99094    1.00000    1.00000
  3798.50000    6.11285    0.00000    0.00000 -132.86519  -67.76789 -132.86519   -4.77053   -5.69535  304.53153  109.11364    0.99266    1.00000    1.00000
  3799.00000    6.11576    0.00000    0.00000 -131.92033  -67.76789 -131.92033   -3.07967   -5.65573  304.54295  109.11717    0.99447    1.00000    1.00000
  3799.50000    6.11236    0.00000    0.00000 -130.97548  -67.76789 -130.97548   -5.26394   -5.61610  304.57159  109.11754    0.99628    1.00000    1.00000
  3800.00000    6.10809    0.00000    0.00000 -130.03063  -67.76789 -130.03063   -6.06417   -5.57647  304.57005  109.11832    0.99809    1.00000    1.00000
  3800.50000    6.13672    0.00000    0.00000 -129.08577  -67.76789 -129.08577   -4.00588   -5.53684  304.57573  109.11827    0.99991    1.00000    1.00000
  3801.00000    6.10206    0.00000    0.00000 -128.14092  -67.76789 -128.14092   -0.37903   -5.49721  304.61725  109.11822    1.00000    1.00000    1.00000
  3801.50000    6.16063    0.00000    0.00000 -127.19607  -67.76789 -127.19607   -0.74034   -5.45758  304.64045  109.12024    1.00000    1.00000    1.00000
  3802.00000    6.15631    0.00000    0.00000 -126.25122  -67.76789 -126.25122   -5.53366   -5.41795  304.65660  109.12187    1.00000    1.00000    1.00000
  3802.50000    6.15304    0.00000    0.00000 -125.30636  -67.76789 -125.30636   -8.12710   -5.37832  304.64587  109.12355    1.00000    1.00000    1.00000
  3803.00000    6.15304    0.00000    0.00000 -124.36151  -67.76789 -124.36151   -4.50903   -5.33869  304.66075  109.12498    1.00000    1.00000    1.00000
  3803.50000    6.15418    0.00000    0.00000 -123.41666  -67.76789 -123.41666   -1.83333   -5.29906  304.69165  109.12505    0.99999    1.00000    1.00000
  3804.00000    6.14482    0.00000    0.00000 -122.47180    0.00000 -122.47180   -4.17449   -5.25943  304.70501  109.12627    0.99998    1.00000    1.00000
  3804.50000    6.13387    0.00000    0.00000 -122.47185    0.00000 -122.47185   -7.88012   -5.25943  304.73492  109.12799    0.99996    1.00000    0.00000
  3805.00000    6.13672    0.00000    0.00000 -122.47189    0.00000 -122.47189   -8.45471   -5.25943  304.75539  109.12964    0.99995    1.00000    0.00000
  3805.50000    6.13524    0.00000    0.00000 -122.47193    0.00000 -122.47193   -6.25178   -5.25943  304.77602  109.12962    0.99994    1.00000    0.00000
  3806.00000    6.09707    0.00000    0.00000 -122.47198    0.00000 -122.47198   -2.95074   -5.25943  304.76969  109.13114    0.99995    1.00000    0.00000
  3806.50000    6.10492    0.00000    0.00000 -122.47202    0.00000 -122.47202   -4.92539   -5.25943  304.77043  109.13263    0.99996    1.00000    0.00000
  3807.00000    6.09654    0.00000    0.00000 -122.47206    0.00000 -122.47206   -7.75189   -5.25943  304.81810  109.13235    0.99997    1.00000    0.00000
  3807.50000    6.09422    0.00000    0.00000 -122.47211    0.00000 -122.47211   -7.24854   -5.25944  304.84481  109.13629    0.99999    1.00000    0.00000
  3808.00000    6.09274    0.00000    0.00000 -122.47215    0.00000 -122.47215   -2.54485   -5.25944  304.86062  109.13933    1.00000    1.00000    0.00000
  3808.50000    6.09285    0.00000    0.00000 -122.47219    0.00000 -122.47219   -0.94930   -5.25944  304.84912  109.14199    1.00000    1.00000    0.00000
  3809.00000    6.09060    0.00000    0.00000 -122.47224    0.00000 -122.47224   -7.96493   -5.25944  304.85265  109.14409    1.00000    1.00000    0.00000
  3809.50000    6.09998    0.00000    0.00000 -122.47228    0.00000 -122.47228   -9.64230   -5.25944  304.88474  109.14360    1.00000    1.00000    0.00000
  3810.00000    6.12396    0.00000    0.00000 -122.47232    0.00000 -122.47232   -8.34731   -5.25944  304.92078  109.14397    1.00000    1.00000    0.00000
  3810.50000    6.13211    0.00000    0.00000 -122.47237    0.00000 -122.47237   -3.28323   -5.25944  304.94290  109.14598    1.00000    1.00000    0.00000
  3811.00000    6.12347    0.00000    0.00000 -122.47241    0.00000 -122.47241   -1.74926   -5.25944  304.93453  109.14758    0.99995    1.00000    0.00000
  3811.50000    6.13644    0.00000    0.00000 -122.47245    0.00000 -122.47245   -4.47096   -5.25944  304.94600  109.14821    0.99989    1.00000    0.00000
  3812.00000    6.13146    0.00000    0.00000 -122.47250    0.00000 -122.47250   -4.69109   -5.25944  304.96447  109.14818    0.99983    1.00000    0.00000
  3812.50000    6.14063    0.00000    0.00000 -122.47254    0.00000 -122.47254   -4.68293   -5.25944  304.98184  109.14985    0.99977    1.00000    0.00000
  3813.00000    6.12390    0.00000    0.00000 -122.47258    0.00000 -122.47258   -4.37945   -5.25944  304.99444  109.15288    0.99972    1.00000    0.00000
  3813.50000    6.15527    0.00000    0.00000 -122.47263    0.00000 -122.47263   -5.82152   -5.25944  305.02641  109.15367    0.99975    1.00000    0.00000
  3814.00000    6.15537    0.00000    0.00000 -122.47267    0.00000 -122.47267   -6.40789   -5.25944  305.05552  109.15460    0.99981    1.00000    0.00000
  3814.50000    6.15226    0.00000    0.00000 -122.47271    0.00000 -122.47271   -4.21140   -5.25944  305.06114  109.15564    0.99987    1.00000    0.00000
  3815.00000    6.15537    0.00000    0.00000 -122.47276    0.00000 -122.47276   -3.32406   -5.25944  305.05120  109.15784    0.99993    1.00000    0.00000
  3815.50000    6.15114    0.00000    0.00000 -122.47280    0.00000 -122.47280   -4.28878   -5.25944  305.06707  109.15839    0.99999    1.00000    0.00000
  3816.00000    6.14603    0.00000    0.00000 -122.47284    0.00000 -122.47284   -4.48192   -5.25944  305.10963  109.15865    0.99690    1.00000    0.00000
  3816.50000    6.14903    0.00000    0.00000 -122.47289    0.00000 -122.47289   -5.46844   -5.25944  305.14255  109.15921    0.99287    1.00000    0.00000
  3817.00000    6.13589    0.00000    0.00000 -122.47293  -15.69500 -122.47293   -4.79500   -5.25944  305.16588  109.16216    0.98884    1.00000    1.00000
  3817.50000    6.14213    0.00000    0.00000 -122.03697  -15.69500 -122.03697   -3.73258   -5.24106  305.14700  109.16165    0.98481    1.00000    1.00000
