~VERSION INFORMATION
VERS.           2.0  :CWLS LOG ASCII STANDARD - 2.0
WRAP.           NO   :One line per depth step
~WELL INFORMATION
STRT.m                          3480.00000: START DEPTH
STOP.m                          3910.00000: STOP DEPTH
STEP.m                             0.50000: STEP
NULL.                           -999.25000: NULL VALUE
COMP.                              Statoil: COMPANY
WELL.                           15/9 F-1 C: WELL
FLD .                                Volve: FIELD
LOC .                                     : LOCATION
PROV.                                     : PROVINCE
UWI .                                     : UNIQUE WELL ID
SRVC.                         Schlumberger: SERVICE COMPANY
DATE.                           05-04-2018: DATE
~CURVE INFORMATION
#MNEM.UNIT                                   Curve Description
#------------                              ----------------------
DEPT.m                                    : curve   1    Depth
C1C2.in                                   : curve   2    Caliper C1C2
QOZI.m3/D                                 : curve   3    Oil rate
QOZT.m3/D                                 : curve   4    Oil rate
QTZT.m3/D                                 : curve   5    Mixture rate
QWZI.m3/D                                 : curve   6    Water rate
QWZT.m3/D                                 : curve   7    Water rate
VASPIN.M/MN                               : curve   8    Apparent velocity
VASPINZ.M/MN                              : curve   9    Apparent velocity
WPRE.bara                                 : curve  10    Pressure
WTEP.°C                                   : curve  11    Temperature
YW_FLV.                                   : curve  12    Water holdup
YW_FLVZ.                                  : curve  13    Water holdup
INFL_Z.                                   : curve  14    Other
~PARAMETER INFORMATION
~OTHER INFORMATION
~ASCII LOG DATA
# ...
  3714.00000    6.06065    0.00000    0.00000 -190.24046    0.00000 -190.24046   -9.11588   -8.10193  301.65971  108.97752    0.99775    1.00000    0.00000
  3714.50000    6.07015    0.00000    0.00000 -190.24044    0.00000 -190.24044   -6.78454   -8.10193  301.67650  108.97754    0.99751    1.00000    0.00000
  3715.00000    6.07131    0.00000    0.00000 -190.24042    0.00000 -190.24042   -7.25066   -8.10192  301.68704  108.97641    0.99730    1.00000    0.00000
  3715.50000    6.08498    0.00000    0.00000 -190.24040    0.00000 -190.24040   -7.73506   -8.10192  301.70995  108.97713    0.99778    1.00000    0.00000
  3716.00000    6.08923    0.00000    0.00000 -190.24038    0.00000 -190.24038   -8.96124   -8.10192  301.73823  108.97957    0.99833    1.00000    0.00000
  3716.50000    6.08923    0.00000    0.00000 -190.24036    0.00000 -190.24036   -9.23322   -8.10192  301.75585  108.98065    0.99888    1.00000    0.00000
  3717.00000    6.08688    0.00000    0.00000 -190.24034    0.00000 -190.24034   -7.80643   -8.10192  301.76755  108.98066    0.99942    1.00000    0.00000
  3717.50000    6.08923    0.00000    0.00000 -190.24032    0.00000 -190.24032   -6.91351   -8.10191  301.78510  108.98205    0.99997    1.00000    0.00000
  3718.00000    6.09956    0.00000    0.00000 -190.24030    0.00000 -190.24030   -5.92523   -8.10191  301.80639  108.98162    1.00000    1.00000    0.00000
  3718.50000    6.11288    0.00000    0.00000 -190.24028    0.00000 -190.24028   -5.66836   -8.10191  301.82431  108.98106    1.00000    1.00000    0.00000
  3719.00000    6.13672    0.00000    0.00000 -190.24027    0.00000 -190.24027   -5.82420   -8.10191  301.83846  108.98140    1.00000    1.00000    0.00000
  3719.50000    6.14544    0.00000    0.00000 -190.24025    0.00000 -190.24025   -7.32946   -8.10191  301.85653  108.98595    1.00000    1.00000    0.00000
  3720.00000    6.14219    0.00000    0.00000 -190.24023    0.00000 -190.24023   -8.25674   -8.10190  301.87483  108.98562    1.00000    1.00000    0.00000
  3720.50000    6.12529    0.00000    0.00000 -190.24021    0.00000 -190.24021   -7.08921   -8.10190  301.89768  108.98661    1.00000    1.00000    0.00000
  3721.00000    6.12113    0.00000    0.00000 -190.24019    0.00000 -190.24019   -7.01870   -8.10190  301.92044  108.98740    1.00000    1.00000    0.00000
  3721.50000    6.12113    0.00000    0.00000 -190.24017    0.00000 -190.24017   -8.78781   -8.10190  301.93753  108.98694    1.00000    1.00000    0.00000
  3722.00000    6.11937    0.00000    0.00000 -190.24015    0.00000 -190.24015  -10.79679   -8.10190  301.96083  108.98908    1.00000    1.00000    0.00000
  3722.50000    6.10643    0.00000    0.00000 -190.24013    0.00000 -190.24013  -11.06973   -8.10189  301.98184  108.99014    0.99997    1.00000    0.00000
  3723.00000    6.11007    0.00000    0.00000 -190.24011    0.00000 -190.24011   -8.98440   -8.10189  301.99473  108.99091    0.99909    1.00000    0.00000
  3723.50000    6.09557    0.00000    0.00000 -190.24009    0.00000 -190.24009   -6.09937   -8.10189  302.01021  108.99155    0.99805    1.00000    0.00000
  3724.00000    6.08923    0.00000    0.00000 -190.24006    0.00000 -190.24006   -8.05451   -8.10189  302.02662  108.99265    0.99702    1.00000    0.00000
  3724.50000    6.08938    0.00000    0.00000 -190.24004    0.00000 -190.24004  -11.51752   -8.10188  302.05261  108.99587    0.99598    1.00000    0.00000
  3725.00000    6.08923    0.00000    0.00000 -190.24002    0.00000 -190.24002  -11.72643   -8.10188  302.07286  108.99579    0.99494    1.00000    0.00000
  3725.50000    6.08420    0.00000    0.00000 -190.24000    0.00000 -190.24000   -9.25340   -8.10188  302.09317  108.99623    0.99566    1.00000    0.00000
  3726.00000    6.07535    0.00000    0.00000 -190.23998    0.00000 -190.23998   -7.22913   -8.10188  302.11632  108.99604    0.99670    1.00000    0.00000
  3726.50000    6.07366    0.00000    0.00000 -190.23996    0.00000 -190.23996   -6.37704   -8.10188  302.12485  108.99765    0.99774    1.00000    0.00000
  3727.00000    6.07366    0.00000    0.00000 -190.23994    0.00000 -190.23994   -6.67951   -8.10187  302.14169  108.99621    0.99877    1.00000    0.00000
  3727.50000    6.08500    0.00000    0.00000 -190.23992    0.00000 -190.23992   -8.45167   -8.10187  302.15808  108.99803    0.99981    1.00000    0.00000
  3728.00000    6.08923    0.00000    0.00000 -190.23990    0.00000 -190.23990   -8.35581   -8.10187  302.17979  108.99944    1.00000    1.00000    0.00000
  3728.50000    6.12694    0.00000    0.00000 -190.23988    0.00000 -190.23988   -8.94613   -8.10187  302.20099  108.99899    1.00000    1.00000    0.00000
  3729.00000    6.11018    0.00000    0.00000 -190.23985    0.00000 -190.23985   -9.95985   -8.10187  302.21042  108.99970    1.00000    1.00000    0.00000
  3729.50000    6.10551    0.00000    0.00000 -190.23983    0.00000 -190.23983   -8.75689   -8.10186  302.22948  108.99863    1.00000    1.00000    0.00000
  3730.00000    6.12419    0.00000    0.00000 -190.23981    0.00000 -190.23981   -5.23487   -8.10186  302.25361  109.00021    1.00000    1.00000    0.00000
  3730.50000    6.08856    0.00000    0.00000 -190.23978    0.00000 -190.23978   -3.17329   -8.10186  302.27157  109.00058    1.00000    1.00000    0.00000
  3731.00000    6.12562    0.00000    0.00000 -190.23976    0.00000 -190.23976   -5.64640   -8.10186  302.28447  109.00224    1.00000    1.00000    0.00000
  3731.50000    6.12173    0.00000    0.00000 -190.23974    0.00000 -190.23974   -9.45855   -8.10185  302.29710  109.00344    1.00000    1.00000    0.00000
  3732.00000    6.12113    0.00000    0.00000 -190.23971    0.00000 -190.23971  -10.02419   -8.10185  302.31341  109.00444    1.00000    1.00000    0.00000
  3732.50000    6.11931    0.00000    0.00000 -190.23969    0.00000 -190.23969   -8.67824   -8.10185  302.33492  109.00424    1.00000    1.00000    0.00000
  3733.00000    6.11178    0.00000    0.00000 -190.23967    0.00000 -190.23967   -7.53069   -8.10185  302.35536  109.00405    1.00000    1.00000    0.00000
  3733.50000    6.10875    0.00000    0.00000 -190.23964    0.00000 -190.23964   -7.81378   -8.10185  302.37540  109.00729    1.00000    1.00000    0.00000
  3734.00000    6.10551    0.00000    0.00000 -190.23962    0.00000 -190.23962  -10.32322   -8.10184  302.40008  109.00708    1.00000    1.00000    0.00000
  3734.50000    6.10357    0.00000    0.00000 -190.23960    0.00000 -190.23960  -10.94831   -8.10184  302.41226  109.00716    1.00000    1.00000    0.00000
  3735.00000    6.10551    0.00000    0.00000 -190.23957    0.00000 -190.23957   -8.66982   -8.10184  302.42488  109.00932    1.00000    1.00000    0.00000
  3735.50000    6.10174    0.00000    0.00000 -190.23955    0.00000 -190.23955   -6.26572   -8.10184  302.44281  109.00854    1.00000    1.00000    0.00000
  3736.00000    6.09438    0.00000    0.00000 -190.23951    0.00000 -190.23951   -7.44383   -8.10184  302.46176  109.00853    1.00000    1.00000    0.00000
  3736.50000    6.08253    0.00000    0.00000 -190.23947    0.00000 -190.23947  -10.89878   -8.10183  302.48220  109.00967    1.00000    1.00000    0.00000
  3737.00000    6.07366    0.00000    0.00000 -190.23942    0.00000 -190.23942  -11.33106   -8.10183  302.49965  109.00974    1.00000    1.00000    0.00000
  3737.50000    6.07589    0.00000    0.00000 -190.23938    0.00000 -190.23938   -9.78679   -8.10183  302.52317  109.01204    1.00000    1.00000    0.00000
  3738.00000    6.07366    0.00000    0.00000 -190.23933    0.00000 -190.23933   -7.83299   -8.10183  302.53974  109.01111    0.99992    1.00000    0.00000
  3738.50000    6.07039    0.00000    0.00000 -190.23929    0.00000 -190.23929   -5.79025   -8.10182  302.54766  109.01247    0.99981    1.00000    0.00000
  3739.00000    6.07326    0.00000    0.00000 -190.23925    0.00000 -190.23925   -7.78023   -8.10182  302.56516  109.01492    0.99969    1.00000    0.00000
  3739.50000    6.08923    0.00000    0.00000 -190.23920    0.00000 -190.23920   -8.24374   -8.10182  302.58389  109.01318    0.99958    1.00000    0.00000
