~VERSION INFORMATION
VERS.           2.0  :CWLS LOG ASCII STANDARD - 2.0
WRAP.           NO   :One line per depth step
~WELL INFORMATION
STRT.m                          3480.00000: START DEPTH
STOP.m                          3910.00000: STOP DEPTH
STEP.m                             0.50000: STEP
NULL.                           -999.25000: NULL VALUE
COMP.                              Statoil: COMPANY
WELL.                           15/9 F-1 C: WELL
FLD .                                Volve: FIELD
LOC .                                     : LOCATION
PROV.                                     : PROVINCE
UWI .                                     : UNIQUE WELL ID
SRVC.                         Schlumberger: SERVICE COMPANY
DATE.                           05-04-2018: DATE
~CURVE INFORMATION
#MNEM.UNIT                                   Curve Description
#------------                              ----------------------
DEPT.m                                    : curve   1    Depth
C1C2.in                                   : curve   2    Caliper C1C2
QOZI.m3/D                                 : curve   3    Oil rate
QOZT.m3/D                                 : curve   4    Oil rate
QTZT.m3/D                                 : curve   5    Mixture rate
QWZI.m3/D                                 : curve   6    Water rate
QWZT.m3/D                                 : curve   7    Water rate
VASPIN.M/MN                               : curve   8    Apparent velocity
VASPINZ.M/MN                              : curve   9    Apparent velocity
WPRE.bara                                 : curve  10    Pressure
WTEP.°C                                   : curve  11    Temperature
YW_FLV.                                   : curve  12    Water holdup
YW_FLVZ.                                  : curve  13    Water holdup
INFL_Z.                                   : curve  14    Other
~PARAMETER INFORMATION
~OTHER INFORMATION
~ASCII LOG DATA
# ...
  3610.00000    6.13061    0.00000    0.00000 -206.81222    0.00000 -206.81222   -5.77880   -8.79413  297.67219  108.87855    1.00000    1.00000    0.00000
  3610.50000    6.11923    0.00000    0.00000 -206.81215    0.00000 -206.81215   -9.78333   -8.79412  297.69256  108.87885    1.00000    1.00000    0.00000
  3611.00000    6.12419    0.00000    0.00000 -206.81207    0.00000 -206.81207  -13.12103   -8.79412  297.71210  108.88048    1.00000    1.00000    0.00000
  3611.50000    6.13405    0.00000    0.00000 -206.81200    0.00000 -206.81200  -12.50721   -8.79412  297.70507  108.88260    1.00000    1.00000    0.00000
  3612.00000    6.13515    0.00000    0.00000 -206.81193    0.00000 -206.81193   -8.18895   -8.79411  297.70579  108.88035    1.00000    1.00000    0.00000
  3612.50000    6.13305    0.00000    0.00000 -206.81185    0.00000 -206.81185   -2.37763   -8.79411  297.73593  108.88214    1.00000    1.00000    0.00000
  3613.00000    6.12999    0.00000    0.00000 -206.81178    0.00000 -206.81178   -5.67247   -8.79410  297.77579  108.88069    1.00000    1.00000    0.00000
  3613.50000    6.10399    0.00000    0.00000 -206.81171    0.00000 -206.81171   -7.82179   -8.79410  297.78966  108.88125    1.00000    1.00000    0.00000
  3614.00000    6.11973    0.00000    0.00000 -206.81163    0.00000 -206.81163   -7.86721   -8.79410  297.77664  108.88030    1.00000    1.00000    0.00000
  3614.50000    6.12535    0.00000    0.00000 -206.81156    0.00000 -206.81156   -8.05597   -8.79409  297.78417  108.88153    1.00000    1.00000    0.00000
  3615.00000    6.12566    0.00000    0.00000 -206.81148    0.00000 -206.81148   -7.13475   -8.79409  297.82255  108.88123    1.00000    1.00000    0.00000
  3615.50000    6.11360    0.00000    0.00000 -206.81141    0.00000 -206.81141   -7.40534   -8.79409  297.85458  108.88245    1.00000    1.00000    0.00000
  3616.00000    6.10406    0.00000    0.00000 -206.81134    0.00000 -206.81134   -8.48974   -8.79408  297.86263  108.88297    1.00000    1.00000    0.00000
  3616.50000    6.10620    0.00000    0.00000 -206.81126    0.00000 -206.81126   -8.45857   -8.79408  297.86686  108.88208    1.00000    1.00000    0.00000
  3617.00000    6.10520    0.00000    0.00000 -206.81118    0.00000 -206.81118   -8.19890   -8.79407  297.88861  108.88315    1.00000    1.00000    0.00000
  3617.50000    6.11396    0.00000    0.00000 -206.81107    0.00000 -206.81107   -7.62196   -8.79407  297.90322  108.88239    1.00000    1.00000    0.00000
  3618.00000    6.11762    0.00000    0.00000 -206.81097    0.00000 -206.81097   -7.24896   -8.79406  297.91186  108.88352    1.00000    1.00000    0.00000
  3618.50000    6.10394    0.00000    0.00000 -206.81087    0.00000 -206.81087   -8.63522   -8.79406  297.94343  108.88384    1.00000    1.00000    0.00000
  3619.00000    6.10394    0.00000    0.00000 -206.81077    0.00000 -206.81077   -9.69417   -8.79406  297.97930  108.88420    1.00000    1.00000    0.00000
  3619.50000    6.10010    0.00000    0.00000 -206.81067    0.00000 -206.81067   -9.81858   -8.79405  297.99009  108.88487    1.00000    1.00000    0.00000
  3620.00000    6.09604    0.00000    0.00000 -206.81057    0.00000 -206.81057   -9.18900   -8.79405  297.98421  108.88380    1.00000    1.00000    0.00000
  3620.50000    6.09656    0.00000    0.00000 -206.81046    0.00000 -206.81046   -7.87683   -8.79404  297.99449  108.88495    1.00000    1.00000    0.00000
  3621.00000    6.10604    0.00000    0.00000 -206.81036    0.00000 -206.81036   -9.53390   -8.79404  298.02628  108.88421    1.00000    1.00000    0.00000
  3621.50000    6.08439    0.00000    0.00000 -206.81026    0.00000 -206.81026  -10.49553   -8.79403  298.06054  108.88546    1.00000    1.00000    0.00000
  3622.00000    6.08749    0.00000    0.00000 -206.81016    0.00000 -206.81016   -9.82844   -8.79403  298.07774  108.88625    0.99999    1.00000    0.00000
  3622.50000    6.10453    0.00000    0.00000 -206.81006    0.00000 -206.81006   -8.04620   -8.79402  298.08721  108.88565    1.00000    1.00000    0.00000
  3623.00000    6.09445    0.00000    0.00000 -206.80995    0.00000 -206.80995   -8.52453   -8.79402  298.09089  108.88657    1.00000    1.00000    0.00000
  3623.50000    6.10628    0.00000    0.00000 -206.80985    0.00000 -206.80985   -9.35086   -8.79401  298.10149  108.88627    1.00000    1.00000    0.00000
  3624.00000    6.10239    0.00000    0.00000 -206.80975    0.00000 -206.80975   -9.35966   -8.79401  298.12570  108.88813    1.00000    1.00000    0.00000
  3624.50000    6.09962    0.00000    0.00000 -206.80965    0.00000 -206.80965   -8.53104   -8.79400  298.15433  108.88616    1.00000    1.00000    0.00000
  3625.00000    6.08336    0.00000    0.00000 -206.80958    0.00000 -206.80958   -4.05914   -8.79400  298.18052  108.88703    1.00000    1.00000    0.00000
  3625.50000    6.13586    0.00000    0.00000 -206.80951    0.00000 -206.80951   -3.37043   -8.79400  298.17484  108.88749    1.00000    1.00000    0.00000
  3626.00000    6.13383    0.00000    0.00000 -206.80944    0.00000 -206.80944   -5.60324   -8.79399  298.16935  108.88793    1.00000    1.00000    0.00000
  3626.50000    6.13206    0.00000    0.00000 -206.80937    0.00000 -206.80937   -6.84043   -8.79399  298.20244  108.88681    1.00000    1.00000    0.00000
  3627.00000    6.13209    0.00000    0.00000 -206.80930    0.00000 -206.80930   -9.36961   -8.79399  298.24604  108.88895    1.00000    1.00000    0.00000
  3627.50000    6.13116    0.00000    0.00000 -206.80924    0.00000 -206.80924   -9.41686   -8.79398  298.27274  108.88949    1.00000    1.00000    0.00000
  3628.00000    6.12706    0.00000    0.00000 -206.80917    0.00000 -206.80917   -7.97267   -8.79398  298.26458  108.88999    1.00000    1.00000    0.00000
  3628.50000    6.13249    0.00000    0.00000 -206.80910    0.00000 -206.80910   -8.17479   -8.79398  298.26534  108.89121    1.00000    1.00000    0.00000
  3629.00000    6.12969    0.00000    0.00000 -206.80903    0.00000 -206.80903  -10.07316   -8.79397  298.29743  108.89025    1.00000    1.00000    0.00000
  3629.50000    6.12381    0.00000    0.00000 -206.80896    0.00000 -206.80896  -11.13357   -8.79397  298.32138  108.89254    1.00000    1.00000    0.00000
  3630.00000    6.12328    0.00000    0.00000 -206.80889    0.00000 -206.80889   -9.23066   -8.79396  298.34021  108.89069    0.99998    1.00000    0.00000
  3630.50000    6.11341    0.00000    0.00000 -206.80882    0.00000 -206.80882   -7.20120   -8.79396  298.36884  108.89177    0.99996    1.00000    0.00000
  3631.00000    6.10909    0.00000    0.00000 -206.80876    0.00000 -206.80876   -8.79824   -8.79396  298.38471  108.89220    0.99994    1.00000    0.00000
  3631.50000    6.11992    0.00000    0.00000 -206.80869    0.00000 -206.80869  -10.18233   -8.79395  298.38348  108.89257    0.99992    1.00000    0.00000
  3632.00000    6.11352    0.00000    0.00000 -206.80862    0.00000 -206.80862  -10.45084   -8.79395  298.39115  108.89229    0.99990    1.00000    0.00000
  3632.50000    6.10760    0.00000    0.00000 -206.80855    0.00000 -206.80855   -9.89154   -8.79395  298.43524  108.89496    0.99991    1.00000    0.00000
  3633.00000    6.10886    0.00000    0.00000 -206.80848    0.00000 -206.80848   -6.51455   -8.79394  298.47451  108.89434    0.99994    1.00000    0.00000
  3633.50000    6.10394    0.00000    0.00000 -206.80841    0.00000 -206.80841   -7.74005   -8.79394  298.47539  108.89401    0.99996    1.00000    0.00000
  3634.00000    6.12167    0.00000    0.00000 -206.80834    0.00000 -206.80834  -10.69253   -8.79394  298.47381  108.89272    0.99998    1.00000    0.00000
  3634.50000    6.12994    0.00000    0.00000 -206.80828    0.00000 -206.80828   -9.87762   -8.79393  298.49456  108.89393    1.00000    1.00000    0.00000
  3635.00000    6.13023    0.00000    0.00000 -206.80821    0.00000 -206.80821   -8.49355   -8.79393  298.52721  108.89410    1.00000    1.00000    0.00000
  3635.50000    6.12433    0.00000    0.00000 -206.80814    0.00000 -206.80814   -7.91927   -8.79393  298.54872  108.89440    1.00000    1.00000    0.00000
